[
   {
      "name":"Abbey Road",
      "zone":"Zone 2/3",
      "address":"Abbey Road, London E15 3NB",
      "postCode":"E15 3NB",
      "stationType":"Train Station",
      "longitude":0.0038181,
      "latitude":51.5324493
   },
   {
      "name":"Acton Central",
      "zone":"Zone 3",
      "address":"Acton Central, W3 6BS Churchfield Rd, London W3 7LL, UK",
      "postCode":"W3 7LL",
      "stationType":"Train Station",
      "longitude":-0.26295,
      "latitude":51.50872,
      "action":"Deactivated"
   },
   {
      "name":"Acton Town",
      "zone":"Zone 3",
      "address":"Acton Town Station, Gunnersbury Ln, London W3 8HN, UK",
      "postCode":"W3 8HN",
      "stationType":"Subway Station",
      "longitude":-0.2803455,
      "latitude":51.5029984
   },
   {
      "name":"Addington Village",
      "zone":"Special",
      "address":"Addington Village Interchange, Kent Gate Way, Croydon CR0 5AR, UK",
      "postCode":"CR0 5AR",
      "stationType":"Light Rail Station",
      "longitude":-0.0328661,
      "latitude":51.3561976,
      "action":"Deactivated"
   },
   {
      "name":"Addiscombe",
      "zone":"Special",
      "address":"Addiscombe, Croydon CR0 7AA",
      "postCode":"CR0 7AA",
      "stationType":"Light Rail Station",
      "longitude":-0.0746361,
      "latitude":51.3785244
   },
   {
      "name":"Aldgate",
      "zone":"Zone 1",
      "address":"Aldgate Station, Aldgate High St, London EC3N 1AH, UK",
      "postCode":"EC3N 1AH",
      "stationType":"Subway Station",
      "longitude":-0.07566,
      "latitude":51.51424
   },
   {
      "name":"Aldgate East",
      "zone":"Zone 1",
      "address":"Aldgate East Station, Whitechapel High St, London E1 7PT, UK",
      "postCode":"E1 7PT",
      "stationType":"Subway Station",
      "longitude":0.0722239,
      "latitude":51.5152612
   },
   {
      "name":"All Saints",
      "zone":"Zone 2",
      "address":"All Saints, Poplar, London E14 0EH",
      "postCode":"E14 0EH",
      "stationType":"Light Rail Station",
      "longitude":0.01311,
      "latitude":51.511
   },
   {
      "name":"Alperton",
      "zone":"Zone 4",
      "address":"Alperton, Wembley HA0 4LU",
      "postCode":"HA0 4LU",
      "stationType":"Subway Station",
      "longitude":0.29959,
      "latitude":51.54063
   },
   {
      "name":"Amersham",
      "zone":"Zone 9",
      "address":"Amersham, Station Approach, Amersham HP6 6RZ, UK",
      "postCode":"HP6 6RZ",
      "stationType":"Subway Station",
      "longitude":-0.6076285,
      "latitude":51.6742769
   },
   {
      "name":"Ampere Way",
      "zone":"Special",
      "address":"Ampere Way, Greater London CR0 3JX, United Kingdom",
      "postCode":"CR0 3JX",
      "stationType":"Light Rail Station",
      "longitude":-0.1238037,
      "latitude":51.3823512
   },
   {
      "name":"Anerley",
      "zone":"Zone 4",
      "address":"Anerley, London SE20 8PT",
      "postCode":"SE20 8PT",
      "stationType":"Train Station",
      "longitude":-0.0657178,
      "latitude":51.4121559
   },
   {
      "name":"Angel",
      "zone":"Zone 1",
      "address":"Angel Station, London N1",
      "postCode":"N1",
      "stationType":"Train Station",
      "longitude":-0.1058732,
      "latitude":51.5327443
   },
   {
      "name":"Archway",
      "zone":"Zone 2/3",
      "address":"Archway Station, Junction Rd, London N19 5RQ, UK",
      "postCode":"N19 5RQ",
      "stationType":"Subway Station",
      "longitude":-0.1348543,
      "latitude":51.5654567
   },
   {
      "name":"Arena",
      "zone":"Special",
      "address":"Arena Tram Stop, Albert Rd, London SE25, UK",
      "postCode":"SE25 4RZ",
      "stationType":"Light Rail Station",
      "longitude":-0.058182,
      "latitude":51.3915413
   },
   {
      "name":"Arnos Grove",
      "zone":"Zone 4",
      "address":"Arnos Grove, Bowes Rd, Arnos Grove, London N11 1AN, UK",
      "postCode":"N11 1AN",
      "stationType":"Subway Station",
      "longitude":-0.1334419,
      "latitude":51.6163551
   },
   {
      "name":"Arsenal",
      "zone":"Zone 2",
      "address":"Arsenal, London N5 1LP",
      "postCode":"N5 1LP",
      "stationType":"Subway Station",
      "longitude":-0.1057342,
      "latitude":51.5584654
   },
   {
      "name":"Avenue Road",
      "zone":"Special",
      "address":"Avenue Road Tram Stop, Beckenham BR3 4NJ",
      "postCode":"BR3 4NJ",
      "stationType":"Light Rail Station",
      "longitude":-0.048101,
      "latitude":51.408149
   },
   {
      "name":"Baker Street",
      "zone":"Zone 1",
      "address":"Baker Street Station, Marylebone Rd, Marylebone, London NW1, UK",
      "postCode":"NW1 5LJ",
      "stationType":"Subway Station",
      "longitude":-0.156863,
      "latitude":51.5231577
   },
   {
      "name":"Balham",
      "zone":"Zone 3",
      "address":"Balham Station, London SW12 9AX",
      "postCode":"SW12 9AX",
      "stationType":"Subway Station",
      "longitude":-0.1528275,
      "latitude":51.4434176
   },
   {
      "name":"Bank",
      "zone":"Zone 1",
      "address":"Bank Station, London EC3V 9AY",
      "postCode":"EC3V 9AY",
      "stationType":"Light Rail Station",
      "longitude":-0.0884131,
      "latitude":51.5132104
   },
   {
      "name":"Barbican",
      "zone":"Zone 1",
      "address":"Barbican Station, Aldersgate St, London EC1A 4JA, UK",
      "postCode":"EC1A 4JA",
      "stationType":"Subway Station",
      "longitude":-0.0976421,
      "latitude":51.52018
   },
   {
      "name":"Barking",
      "zone":"Zone 4",
      "address":"Barking IG11 8TU",
      "postCode":"IG11 8TU",
      "stationType":"Train Station",
      "longitude":0.08093,
      "latitude":51.53949
   },
   {
      "name":"Barkingside",
      "zone":"Zone 4",
      "address":"Barkingside Station, Station Rd, Ilford, Milford IG6 1NB, UK",
      "postCode":"IG6 1NB",
      "stationType":"Subway Station",
      "longitude":0.088503,
      "latitude":51.585851
   },
   {
      "name":"Barons Court",
      "zone":"Zone 2",
      "address":"Barons Court Station, London W14 9EA",
      "postCode":"W14 9EA",
      "stationType":"Subway Station",
      "longitude":-0.2134,
      "latitude":51.49031
   },
   {
      "name":"Bayswater",
      "zone":"Zone 1",
      "address":"Bayswater Station, Queensway, London W2 4RH",
      "postCode":"W2 4RH",
      "stationType":"Subway Station",
      "longitude":-0.1879339,
      "latitude":51.5123173
   },
   {
      "name":"Beckenham Junction",
      "zone":"Special",
      "address":"Beckenham Junction, Beckenham BR3 1HY, UK",
      "postCode":"BR3 1HY",
      "stationType":"Light Rail Station",
      "longitude":-0.0258909,
      "latitude":51.4109588
   },
   {
      "name":"Beckenham Road",
      "zone":"Special",
      "address":"Beckenham Road, Beckenham BR3 4RR",
      "postCode":"BR3 4RR",
      "stationType":"Light Rail Station",
      "longitude":-0.0444962,
      "latitude":51.4082254
   },
   {
      "name":"Beckton",
      "zone":"Zone 3",
      "address":"Beckton, London E6 5NT",
      "postCode":"E6 5NT",
      "stationType":"Light Rail Station",
      "longitude":0.06148,
      "latitude":51.51436
   },
   {
      "name":"Beckton Park",
      "zone":"Zone 3",
      "address":"Beckton Park, London E6 5NE",
      "postCode":"E6 5NE",
      "stationType":"Train Station",
      "longitude":0.05496,
      "latitude":51.50879
   },
   {
      "name":"Becontree",
      "zone":"Zone 5",
      "address":"Becontree Station, Gale St, Dagenham RM9 4TP, UK",
      "postCode":"RM9 4TP",
      "stationType":"Subway Station",
      "longitude":0.1271473,
      "latitude":51.5402833
   },
   {
      "name":"Beddington Lane",
      "zone":"Special",
      "address":"Beddington Lane London Tramlink Stop, Beddington Lane, Croydon, Croydon, Greater London CR0 4TS, UK",
      "postCode":"CR0 4TS",
      "stationType":"Light Rail Station",
      "longitude":-0.1348773,
      "latitude":51.3813877
   },
   {
      "name":"Belgrave Walk",
      "zone":"Special",
      "address":"Belgrave Walk Tram Stop, Mitcham CR4 3QE",
      "postCode":"CR4 3QE",
      "stationType":"Light Rail Station",
      "longitude":-0.1784255,
      "latitude":51.4009877
   },
   {
      "name":"Belsize Park",
      "zone":"Zone 2",
      "address":"Belsize Park Station, Haverstock Hill, London NW3 2AL, UK",
      "postCode":"NW3 2AL",
      "stationType":"Subway Station",
      "longitude":-0.164373,
      "latitude":51.5504465
   },
   {
      "name":"Bermondsey",
      "zone":"Zone 2",
      "address":"Bermondsey Station, London SE16 4SN",
      "postCode":"SE16 4SN",
      "stationType":"Subway Station",
      "longitude":-0.06374,
      "latitude":51.49795
   },
   {
      "name":"Bethnal Green (Central Line)",
      "zone":"Zone 2",
      "address":"Bethnal Green, Cambridge Heath Rd, London E2 0ET, UK",
      "postCode":"E2 0ET",
      "stationType":"Subway Station",
      "longitude":-0.055419,
      "latitude":51.527265
   },
   {
      "name":"Bethnal Green (London Overground)",
      "zone":"Zone 2",
      "address":"Bethnal Green, London E1 5DT",
      "postCode":"E1 5DT",
      "stationType":"Train Station",
      "longitude":-0.05954,
      "latitude":51.52392
   },
   {
      "name":"Birkbeck",
      "zone":"Special",
      "address":"Birkbeck Tram Stop, Beckenham BR3 4EL",
      "postCode":"BR3 4EL",
      "stationType":"Light Rail Station",
      "longitude":-0.05576,
      "latitude":51.402411
   },
   {
      "name":"Blackfriars",
      "zone":"Zone 1",
      "address":"Blackfriars Station, 179 Queen Victoria St, London EC4V 4EG, UK",
      "postCode":"EC4V 4EG",
      "stationType":"Train Station",
      "longitude":-0.103214,
      "latitude":51.5113976
   },
   {
      "name":"Blackhorse Lane",
      "zone":"Special",
      "address":"Blackhorse Lane Tram Stop, 8A Tenterden Gardens, Croydon CR0 6NL, UK",
      "postCode":"CR0 6NL",
      "stationType":"Light Rail Station",
      "longitude":-0.0717412,
      "latitude":51.3835845
   },
   {
      "name":"Blackhorse Road",
      "zone":"Zone 3",
      "address":"Blackhorse Road, Walthamstow, London E17 6JJ",
      "postCode":"E17 6JJ",
      "stationType":"Train Station",
      "longitude":-0.041515,
      "latitude":51.586564
   },
   {
      "name":"Blackwall",
      "zone":"Zone 2",
      "address":"Blackwall, Poplar, London E14 9QB",
      "postCode":"E14 9QB",
      "stationType":"Train Station",
      "longitude":-0.00694,
      "latitude":51.50799
   },
   {
      "name":"Bond Street",
      "zone":"Zone 1",
      "address":"Bond Street Station, Oxford St, Mayfair, London W1R 1FE, UK",
      "postCode":"W1R 1FE",
      "stationType":"Subway Station",
      "longitude":-0.1495513,
      "latitude":51.5139436
   },
   {
      "name":"Borough",
      "zone":"Zone 1",
      "address":"Borough Station, Borough High St, London SE1 1JX, UK",
      "postCode":"SE1 1JX",
      "stationType":"Subway Station",
      "longitude":-0.093687,
      "latitude":51.501267
   },
   {
      "name":"Boston Manor",
      "zone":"Zone 4",
      "address":"Boston Manor, Brentford TW8 9LQ",
      "postCode":"TW8 9LQ",
      "stationType":"Subway Station",
      "longitude":-0.3247429,
      "latitude":51.495767
   },
   {
      "name":"Bounds Green",
      "zone":"Zone 3/4",
      "address":"Bounds Green, Bounds Green Rd, London N11 2EU, UK",
      "postCode":"N11 2EU",
      "stationType":"Subway Station",
      "longitude":-0.12421,
      "latitude":51.60704
   },
   {
      "name":"Bow Church",
      "zone":"Zone 2",
      "address":"Bow Church, London E3 3AA",
      "postCode":"E3 3AA",
      "stationType":"Light Rail Station",
      "longitude":-0.0222214,
      "latitude":51.526436
   },
   {
      "name":"Bow Road",
      "zone":"Zone 2",
      "address":"Bow Road Station, Bow Rd, London E3 4DH, UK",
      "postCode":"E3 4DH",
      "stationType":"Subway Station",
      "longitude":-0.0251,
      "latitude":51.52694
   },
   {
      "name":"Brent Cross",
      "zone":"Zone 3",
      "address":"Brent Cross Station, Highfield Ave, London NW11 9UA, UK",
      "postCode":"NW11 9UA",
      "stationType":"Subway Station",
      "longitude":-0.2133947,
      "latitude":51.5768423
   },
   {
      "name":"Brentwood",
      "zone":"Zone 9",
      "address":"Brentwood, Warley, Brentwood CM14 5EZ",
      "postCode":"CM14 5EZ",
      "stationType":"Train Station",
      "longitude":0.29961,
      "latitude":51.61361
   },
   {
      "name":"Brixton",
      "zone":"Zone 2",
      "address":"Brixton Station, Brixton Rd, Brixton, London SW9 8HE, UK",
      "postCode":"SW9 8HE",
      "stationType":"Subway Station",
      "longitude":-0.1147774,
      "latitude":51.4626402
   },
   {
      "name":"Brockley",
      "zone":"Zone 2",
      "address":"Brockley, London SE4 2EX",
      "postCode":"SE4 2EX",
      "stationType":"Train Station",
      "longitude":-0.0373461,
      "latitude":51.4646209
   },
   {
      "name":"Bromley-by-Bow",
      "zone":"Zone 2/3",
      "address":"Bromley-By-Bow Station, Blackwall Tunnel Northern Approach, London E3 3JJ, UK",
      "postCode":"E3 3JJ",
      "stationType":"Subway Station",
      "longitude":-0.0116902,
      "latitude":51.5248497
   },
   {
      "name":"Brondesbury",
      "zone":"Zone 2",
      "address":"Brondesbury, London NW6 7QB",
      "postCode":"NW6 7QB",
      "stationType":"Train Station",
      "longitude":-0.203629,
      "latitude":51.543821
   },
   {
      "name":"Brondesbury Park",
      "zone":"Zone 2",
      "address":"Brondesbury Park, 213A Chevening Rd, London NW6 6RP, UK",
      "postCode":"NW6 6RP",
      "stationType":"Train Station",
      "longitude":-0.2101055,
      "latitude":51.54091
   },
   {
      "name":"Bruce Grove",
      "zone":"Zone 3",
      "address":"Bruce Grove, London N17 9JF",
      "postCode":"N17 9JF",
      "stationType":"Train Station",
      "longitude":-0.06984,
      "latitude":51.59396
   },
   {
      "name":"Buckhurst Hill",
      "zone":"Zone 5",
      "address":"Buckhurst Hill Station, Victoria Rd, Buckhurst Hill, London IG9 5ET, UK",
      "postCode":"IG9 5ET",
      "stationType":"Subway Station",
      "longitude":0.046738,
      "latitude":51.626578
   },
   {
      "name":"Burnt Oak",
      "zone":"Zone 4",
      "address":"Burnt Oak Station, Watling Ave, Edgware HA8 0LA, UK",
      "postCode":"HA8 0LA",
      "stationType":"Subway Station",
      "longitude":-0.2641567,
      "latitude":51.6026868
   },
   {
      "name":"Bushey",
      "zone":"Zone 8",
      "address":"Bushey, Pinner Rd, Watford WD19 4EA, UK",
      "postCode":"WD19 4EA",
      "stationType":"Train Station",
      "longitude":-0.38425,
      "latitude":51.6457019
   },
   {
      "name":"Bush Hill Park",
      "zone":"Zone 5",
      "address":"Bush Hill Park, Enfield EN1 2PX",
      "postCode":"EN1 2PX",
      "stationType":"Train Station",
      "longitude":-0.06919,
      "latitude":51.64152
   },
   {
      "name":"Caledonian Road",
      "zone":"Zone 2",
      "address":"Caledonian Road Station, Caledonian Rd, London N7 9BA, UK",
      "postCode":"N7 9BA",
      "stationType":"Subway Station",
      "longitude":-0.1181897,
      "latitude":51.548522
   },
   {
      "name":"Caledonian Road & Barnsbury",
      "zone":"Zone 2",
      "address":"Caledonian Road & Barnsbury, London N7 8UJ",
      "postCode":"N7 8UJ",
      "stationType":"Train Station",
      "longitude":-0.1150476,
      "latitude":51.5435206
   },
   {
      "name":"Cambridge Heath",
      "zone":"Zone 2",
      "address":"Cambridge Heath, London E2 9HA",
      "postCode":"E2 9HA",
      "stationType":"Train Station",
      "longitude":-0.05725,
      "latitude":51.53197
   },
   {
      "name":"Camden Road",
      "zone":"Zone 2",
      "address":"Camden Road, London NW1 9LS",
      "postCode":"NW1 9LS",
      "stationType":"Train Station",
      "longitude":-0.13868,
      "latitude":51.54179
   },
   {
      "name":"Camden Town",
      "zone":"Zone 2",
      "address":"Camden Town, London NW1 8QL",
      "postCode":"NW1 8QL",
      "stationType":"Subway Station",
      "longitude":-0.1426696,
      "latitude":51.5394071
   },
   {
      "name":"Canada Water",
      "zone":"Zone 2",
      "address":"Canada Water, Deal Porter Way, London SE16, UK",
      "postCode":"SE16",
      "stationType":"Subway Station",
      "longitude":-0.04969,
      "latitude":51.49799
   },
   {
      "name":"Canary Wharf",
      "zone":"Zone 2",
      "address":"Canary Wharf Station, Canary Wharf, London E14 5NY",
      "postCode":"E14 5NY",
      "stationType":"Subway Station",
      "longitude":-0.0185946,
      "latitude":51.5034897
   },
   {
      "name":"Canning Town",
      "zone":"Zone 2/3",
      "address":"Canning Town, Silvertown Way, London, Canning Town E16 1DQ, UK",
      "postCode":"E16 1DQ",
      "stationType":"Light Rail Station",
      "longitude":0.0084238,
      "latitude":51.5140048
   },
   {
      "name":"Cannon Street",
      "zone":"Zone 1",
      "address":"Cannon Street Station, London EC4N 6AP, UK",
      "postCode":"EC4N 6AP",
      "stationType":"Train Station",
      "longitude":-0.09027,
      "latitude":51.51138
   },
   {
      "name":"Canonbury",
      "zone":"Zone 2",
      "address":"Canonbury, Wallace Rd, Mildmay Ward, London N1 2PG, UK",
      "postCode":"N1 2PG",
      "stationType":"Train Station",
      "longitude":-0.0921067,
      "latitude":51.5486859
   },
   {
      "name":"Canons Park",
      "zone":"Zone 5",
      "address":"Canons Park Station, Whitechurch Lane, Edgware HA8 6RN, UK",
      "postCode":"HA8 6RN",
      "stationType":"Subway Station",
      "longitude":-0.2947155,
      "latitude":51.6078208
   },
   {
      "name":"Carpenders Park",
      "zone":"Zone 7",
      "address":"Carpenders Park, Watford WD19 7DT",
      "postCode":"WD19 7DT",
      "stationType":"Train Station",
      "longitude":-0.38555,
      "latitude":51.6279314
   },
   {
      "name":"Centrale",
      "zone":"Special",
      "address":"Centrale, 67 Tamworth Rd, Croydon CR0 1XZ, UK",
      "postCode":"CR0 1XZ",
      "stationType":"Light Rail Station",
      "longitude":-0.1037781,
      "latitude":51.3758194
   },
   {
      "name":"Chadwell Heath",
      "zone":"Zone 5",
      "address":"Chadwell Heath, Romford RM6 4EE",
      "postCode":"RM6 4EE",
      "stationType":"Train Station",
      "longitude":0.12899,
      "latitude":51.56804
   },
   {
      "name":"Chalfont & Latimer",
      "zone":"Zone 8",
      "address":"Chalfont & Latimer, Little Chalfont, Amersham HP6 6RZ",
      "postCode":"HP6 6RZ",
      "stationType":"Subway Station",
      "longitude":-0.5605544,
      "latitude":51.6680901
   },
   {
      "name":"Chalk Farm",
      "zone":"Zone 2",
      "address":"Chalk Farm Station, Adelaide Rd, London NW3 2BP",
      "postCode":"NW3 2BP",
      "stationType":"Subway Station",
      "longitude":-0.153707,
      "latitude":51.544151
   },
   {
      "name":"Chancery Lane",
      "zone":"Zone 1",
      "address":"Chancery Lane Station, High Holborn, London WC1V 6DR, UK",
      "postCode":"WC1V 6DR",
      "stationType":"Subway Station",
      "longitude":-0.1116789,
      "latitude":51.5181949
   },
   {
      "name":"Charing Cross",
      "zone":"Zone 1",
      "address":"Charing Cross Station, Strand, London WC2N 5HF, UK",
      "postCode":"WC2N 5HF",
      "stationType":"Train Station",
      "longitude":-0.125033,
      "latitude":51.508206
   },
   {
      "name":"Chesham",
      "zone":"Zone 9",
      "address":"Chesham HP5 1DL",
      "postCode":"HP5 1DL",
      "stationType":"Subway Station",
      "longitude":-0.6111168,
      "latitude":51.7052151
   },
   {
      "name":"Cheshunt",
      "zone":"Zone 8",
      "address":"Cheshunt, Waltham Cross EN8 9AQ",
      "postCode":"EN8 9AQ",
      "stationType":"Train Station",
      "longitude":-0.02393,
      "latitude":51.70288
   },
   {
      "name":"Chigwell",
      "zone":"Zone 4",
      "address":"Chigwell Station, 187 High Rd, Chigwell IG7 5AS, UK",
      "postCode":"IG7 5AS",
      "stationType":"Subway Station",
      "longitude":0.0745432,
      "latitude":51.6178974
   },
   {
      "name":"Chingford",
      "zone":"Zone 5",
      "address":"Chingford, London E4 6AL",
      "postCode":"E4 6AL",
      "stationType":"Train Station",
      "longitude":0.00992,
      "latitude":51.63309
   },
   {
      "name":"Chiswick Park",
      "zone":"Zone 3",
      "address":"Chiswick Park Station, Bollo Ln, Chiswick, London W4 5NE, UK",
      "postCode":"W4 5NE",
      "stationType":"Subway Station",
      "longitude":-0.2677139,
      "latitude":51.494423
   },
   {
      "name":"Chorleywood",
      "zone":"Zone 7",
      "address":"Chorleywood, Rickmansworth WD3 5ND",
      "postCode":"WD3 5ND",
      "stationType":"Train Station",
      "longitude":-0.518406,
      "latitude":51.6542999
   },
   {
      "name":"Church Street",
      "zone":"Special",
      "address":"Church Street Tram Stop, Croydon CR0 1RN",
      "postCode":"CR0 1RN",
      "stationType":"Light Rail Station",
      "longitude":-0.10434,
      "latitude":51.37371
   },
   {
      "name":"Clapham Common",
      "zone":"Zone 2",
      "address":"Clapham Common, The Pavement, London SW4 0HY, UK",
      "postCode":"SW4 0HY",
      "stationType":"Subway Station",
      "longitude":-0.1383884,
      "latitude":51.461786
   },
   {
      "name":"Clapham High Street",
      "zone":"Zone 2",
      "address":"Clapham High Street, London SW4 6DQ",
      "postCode":"SW4 6DQ",
      "stationType":"Train Station",
      "longitude":-0.1316238,
      "latitude":51.4650615
   },
   {
      "name":"Clapham Junction",
      "zone":"Zone 2",
      "address":"Clapham Junction, St John's Hill, London SW11 2QP, UK",
      "postCode":"SW11 2QP",
      "stationType":"Train Station",
      "longitude":-0.1708113,
      "latitude":51.4651737
   },
   {
      "name":"Clapham North",
      "zone":"Zone 2",
      "address":"Clapham North Station, London SW4 7SH",
      "postCode":"SW4 7SH",
      "stationType":"Subway Station",
      "longitude":-0.129534,
      "latitude":51.465095
   },
   {
      "name":"Clapham South",
      "zone":"Zone 2/3",
      "address":"Clapham South Station, Balham Hill, London SW12 9DU, UK",
      "postCode":"SW12 9DU",
      "stationType":"Subway Station",
      "longitude":-0.1477613,
      "latitude":51.4528383
   },
   {
      "name":"Clapton",
      "zone":"Zone 2/3",
      "address":"Clapton, London E5 9PY",
      "postCode":"E5 9PY",
      "stationType":"Train Station",
      "longitude":-0.057,
      "latitude":51.56165
   },
   {
      "name":"Cockfosters",
      "zone":"Zone 5",
      "address":"Cockfosters Station, Cockfosters Rd, Barnet EN4 0DZ, UK",
      "postCode":"EN4 0DZ",
      "stationType":"Subway Station",
      "longitude":-0.1497561,
      "latitude":51.651645
   },
   {
      "name":"Colindale",
      "zone":"Zone 4",
      "address":"Colindale Station, Colindale Ave, London NW9 5HR, UK",
      "postCode":"NW9 5HR",
      "stationType":"Subway Station",
      "longitude":-0.2501156,
      "latitude":51.5953204
   },
   {
      "name":"Colliers Wood",
      "zone":"Zone 3",
      "address":"Colliers Wood Station, London SW19 2HR",
      "postCode":"SW19 2HR",
      "stationType":"Subway Station",
      "longitude":-0.1780314,
      "latitude":51.4181008
   },
   {
      "name":"Coombe Lane",
      "zone":"Special",
      "address":"Coombe Lane Tram Stop, Coombe Rd, Croydon CR0 5RF, UK",
      "postCode":"CR0 5RF",
      "stationType":"Light Rail Station",
      "longitude":-0.0600991,
      "latitude":51.3597479
   },
   {
      "name":"Covent Garden",
      "zone":"Zone 1",
      "address":"Covent Garden Station, Long Acre, London WC2E 9JT, UK",
      "postCode":"WC2E 9JT",
      "stationType":"Subway Station",
      "longitude":-0.1241079,
      "latitude":51.5130214
   },
   {
      "name":"Crossharbour",
      "zone":"Zone 2",
      "address":"Crossharbour, Isle of Dogs, London E14 3NA",
      "postCode":"E14 3NA",
      "stationType":"Train Station",
      "longitude":-0.0144615,
      "latitude":51.495794
   },
   {
      "name":"Crouch Hill",
      "zone":"Zone 3",
      "address":"Crouch Hill, London N4 4BA",
      "postCode":"N4 4BA",
      "stationType":"Train Station",
      "longitude":-0.1171538,
      "latitude":51.5713792
   },
   {
      "name":"Croxley",
      "zone":"Zone 7",
      "address":"Croxley Station, Watford Rd, Croxley Green, Rickmansworth WD3 3DD, UK",
      "postCode":"WD3 3DD",
      "stationType":"Subway Station",
      "longitude":-0.4414165,
      "latitude":51.6472449
   },
   {
      "name":"Crystal Palace",
      "zone":"Zone 3/4",
      "address":"Crystal Palace, London SE19 2AZ",
      "postCode":"SE19 2AZ",
      "stationType":"Train Station",
      "longitude":-0.07258,
      "latitude":51.41811
   },
   {
      "name":"Custom House for ExCeL",
      "zone":"Zone 3",
      "address":"Custom House for ExCeL, London E16 1DR",
      "postCode":"E16 1DR",
      "stationType":"Light Rail Station",
      "longitude":0.0258878,
      "latitude":51.50966
   },
   {
      "name":"Cutty Sark for Maritime Greenwich",
      "zone":"Zone 2/3",
      "address":"Cutty Sark, London SE10 9EJ",
      "postCode":"SE10 9EJ",
      "stationType":"Train Station",
      "longitude":-0.0109417,
      "latitude":51.4816758
   },
   {
      "name":"Cyprus",
      "zone":"Zone 3",
      "address":"Cyprus, London E6 5NP",
      "postCode":"E6 5NP",
      "stationType":"Light Rail Station",
      "longitude":0.06395,
      "latitude":51.50847
   },
   {
      "name":"Dagenham East",
      "zone":"Zone 5",
      "address":"Dagenham East Station, North Rainham Rd, Dagenham RM10 8AA, UK",
      "postCode":"RM10 8AA",
      "stationType":"Subway Station",
      "longitude":0.165861,
      "latitude":51.544188
   },
   {
      "name":"Dagenham Heathway",
      "zone":"Zone 5",
      "address":"Dagenham Heathway, Dagenham RM10 8QS",
      "postCode":"RM10 8QS",
      "stationType":"Subway Station",
      "longitude":0.1476728,
      "latitude":51.5417022
   },
   {
      "name":"Dalston Junction",
      "zone":"Zone 2",
      "address":"Dalston Junction, Dalston Ln, London E8 3DE, UK",
      "postCode":"E8 3DE",
      "stationType":"Train Station",
      "longitude":-0.0749978,
      "latitude":51.5460536
   },
   {
      "name":"Dalston Kingsland",
      "zone":"Zone 2",
      "address":"Dalston Kingsland, London E8 2PA",
      "postCode":"E8 2PA",
      "stationType":"Train Station",
      "longitude":-0.0756712,
      "latitude":51.548156
   },
   {
      "name":"Debden",
      "zone":"Zone 6",
      "address":"Debden Station, Chigwell Ln, Loughton IG10 3TG, UK",
      "postCode":"IG10 3TG",
      "stationType":"Subway Station",
      "longitude":0.083828,
      "latitude":51.645494
   },
   {
      "name":"Denmark Hill",
      "zone":"Zone 2",
      "address":"Denmark Hill, Camberwell, London SE5 8AQ",
      "postCode":"SE5 8AQ",
      "stationType":"Train Station",
      "longitude":-0.0896122,
      "latitude":51.4680662
   },
   {
      "name":"Deptford Bridge",
      "zone":"Zone 2/3",
      "address":"Deptford Bridge, London SE8 4HH",
      "postCode":"SE8 4HH",
      "stationType":"Train Station",
      "longitude":-0.02241,
      "latitude":51.47421
   },
   {
      "name":"Devons Road",
      "zone":"Zone 2",
      "address":"Devons Road, Devons Rd, London E3 3QY, UK",
      "postCode":"E3 3QY",
      "stationType":"Light Rail Station",
      "longitude":-0.0173697,
      "latitude":51.5225083
   },
   {
      "name":"Dollis Hill",
      "zone":"Zone 3",
      "address":"Dollis Hill Station, Hamilton Rd, London NW10 1NU, UK",
      "postCode":"NW10 1NU",
      "stationType":"Subway Station",
      "longitude":-0.238768,
      "latitude":51.551969
   },
   {
      "name":"Dundonald Road",
      "zone":"Special",
      "address":"Dundonald Road, Wimbledon, London SW19 3SA, UK",
      "postCode":"SW19 3SA",
      "stationType":"Light Rail Station",
      "longitude":-0.2075967,
      "latitude":51.4176299
   },
   {
      "name":"Ealing Broadway",
      "zone":"Zone 3",
      "address":"Ealing Broadway, London W5 2NU",
      "postCode":"W5 2NU",
      "stationType":"Subway Station",
      "longitude":-0.3018624,
      "latitude":51.5149278
   },
   {
      "name":"Ealing Common",
      "zone":"Zone 3",
      "address":"Ealing Common Station, Uxbridge, London W5 3LD, UK",
      "postCode":"W5 3LD",
      "stationType":"Subway Station",
      "longitude":-0.2882332,
      "latitude":51.5102335
   },
   {
      "name":"Earlâ€™s Court",
      "zone":"Zone 1/2",
      "address":"Earl's Court Station, Kensington, London SW5 9AA",
      "postCode":"SW5 9AA",
      "stationType":"Subway Station",
      "longitude":-0.193179,
      "latitude":51.4921183
   },
   {
      "name":"East Acton",
      "zone":"Zone 2",
      "address":"East Acton, Erconwald St, White City, London W12 0BP, UK",
      "postCode":"W12 0BP",
      "stationType":"Subway Station",
      "longitude":-0.2474417,
      "latitude":51.5166111
   },
   {
      "name":"Eastcote",
      "zone":"Zone 5",
      "address":"Eastcote Station, Field End Rd, Ruislip HA5 1QZ, UK",
      "postCode":"HA5 1QZ",
      "stationType":"Subway Station",
      "longitude":-0.3971429,
      "latitude":51.5765526
   },
   {
      "name":"East Finchley",
      "zone":"Zone 3",
      "address":"East Finchley Station, High Rd, London N2 0NW",
      "postCode":"N2 0NW",
      "stationType":"Subway Station",
      "longitude":-0.1646091,
      "latitude":51.5871051
   },
   {
      "name":"East Ham",
      "zone":"Zone 3/4",
      "address":"East Ham Station, High St N, London E6 2JA, UK",
      "postCode":"E6 2JA",
      "stationType":"Subway Station",
      "longitude":0.0514549,
      "latitude":51.5389783
   },
   {
      "name":"East India",
      "zone":"Zone 2/3",
      "address":"East India, Poplar, London E14 9GF",
      "postCode":"E14 9GF",
      "stationType":"Train Station",
      "longitude":-0.0023737,
      "latitude":51.5094101
   },
   {
      "name":"East Putney",
      "zone":"Zone 2/3",
      "address":"East Putney Station, Upper Richmond Rd, London SW15, UK",
      "postCode":"SW15",
      "stationType":"Subway Station",
      "longitude":-0.2108132,
      "latitude":51.4590584
   },
   {
      "name":"Edgware",
      "zone":"Zone 5",
      "address":"Edgware HA8 7YE",
      "postCode":"HA8 7YE",
      "stationType":"Subway Station",
      "longitude":-0.2749,
      "latitude":51.61366
   },
   {
      "name":"Edgware Road (Bakerloo)",
      "zone":"Zone 1",
      "address":"304 Edgware Rd, London W2 1DY, UK",
      "postCode":"W2 1DY",
      "stationType":"Subway Station",
      "longitude":-0.1715935,
      "latitude":51.5202702
   },
   {
      "name":"Edgware Road (Circle/District/H&C)",
      "zone":"Zone 1",
      "address":"Edgware Road Station, Chapel St, Marylebone, London NW1 5DH, UK",
      "postCode":"NW1 5DH",
      "stationType":"Subway Station",
      "longitude":-0.16781,
      "latitude":51.51986
   },
   {
      "name":"Edmonton Green",
      "zone":"Zone 4",
      "address":"Edmonton Green, London N9 7SA",
      "postCode":"N9 7SA",
      "stationType":"Train Station",
      "longitude":-0.06109,
      "latitude":51.62493
   },
   {
      "name":"Elephant & Castle",
      "zone":"Zone 1/2",
      "address":"Elephant & Castle Station, London Rd, London SE1 6LW, UK",
      "postCode":"SE1 6LW",
      "stationType":"Subway Station",
      "longitude":-0.1008403,
      "latitude":51.4958137
   },
   {
      "name":"Elmers End",
      "zone":"Special",
      "address":"Elmers End, Beckenham BR3 3TZ",
      "postCode":"BR3 3TZ",
      "stationType":"Train Station",
      "longitude":-0.04954,
      "latitude":51.39849
   },
   {
      "name":"Elm Park",
      "zone":"Zone 6",
      "address":"Elm Park Station, The Broadway, Hornchurch RM12 4RW, UK",
      "postCode":"RM12 4RW",
      "stationType":"Subway Station",
      "longitude":0.199162,
      "latitude":51.549873
   },
   {
      "name":"Elverson Road",
      "zone":"Zone 2/3",
      "address":"Elverson Road, London SE8 4LA",
      "postCode":"SE8 4LA",
      "stationType":"Train Station",
      "longitude":-0.0166948,
      "latitude":51.4689523
   },
   {
      "name":"Embankment",
      "zone":"Zone 1",
      "address":"Embankment Station, Villiers St, London WC2N 6NS, UK",
      "postCode":"WC2N 6NS",
      "stationType":"Subway Station",
      "longitude":-0.1221937,
      "latitude":51.5072554
   },
   {
      "name":"Emerson Park",
      "zone":"Zone 6",
      "address":"Emerson Park, Hornchurch RM11 3HU",
      "postCode":"RM11 3HU",
      "stationType":"Train Station",
      "longitude":0.218791,
      "latitude":51.567291
   },
   {
      "name":"Emirates Greenwich Peninsula",
      "zone":"Special",
      "address":"Unit 1, 2, 3 & 4, Emirates Greenwich Peninsula, Emirates Cable Car Terminal, Edmund Halley Way, London SE10 0FR, UK",
      "postCode":"SE10 0FR",
      "stationType":"Transit Station",
      "longitude":0.008292,
      "latitude":51.499705
   },
   {
      "name":"Emirates Royal Docks",
      "zone":"Special",
      "address":"Emirates Royal Docks, London E16 1BW",
      "postCode":"E16 1BW",
      "stationType":"Transit Station",
      "longitude":0.0181297,
      "latitude":51.5077836
   },
   {
      "name":"Enfield Town",
      "zone":"Zone 5",
      "address":"Enfield Town, Southbury Rd, Enfield EN1 1YX, UK",
      "postCode":"EN1 1YX",
      "stationType":"Train Station",
      "longitude":-0.0793447,
      "latitude":51.6520903
   },
   {
      "name":"Epping",
      "zone":"Zone 6",
      "address":"Epping Station, Epping CM16 4HW",
      "postCode":"CM16 4HW",
      "stationType":"Subway Station",
      "longitude":0.11379,
      "latitude":51.69368
   },
   {
      "name":"Euston",
      "zone":"Zone 1",
      "address":"Euston, Kings Cross, London NW1 2RT, UK",
      "postCode":"NW1 2RT",
      "stationType":"Train Station",
      "longitude":-0.133844,
      "latitude":51.5285266
   },
   {
      "name":"Euston Square",
      "zone":"Zone 1",
      "address":"Euston Square, Kings Cross, London NW1 2BF",
      "postCode":"NW1 2BF",
      "stationType":"Subway Station",
      "longitude":-0.1355335,
      "latitude":51.5254442
   },
   {
      "name":"Fairlop",
      "zone":"Zone 4",
      "address":"Fairlop Station, Forest Road, Ilford IG6 3HD, UK",
      "postCode":"IG6 3HD",
      "stationType":"Subway Station",
      "longitude":0.0909294,
      "latitude":51.5957413
   },
   {
      "name":"Farringdon",
      "zone":"Zone 1",
      "address":"Farringdon, London EC1M",
      "postCode":"EC1M",
      "stationType":"Subway Station",
      "longitude":-0.10489,
      "latitude":51.52025
   },
   {
      "name":"Fieldway",
      "zone":"Special",
      "address":"Fieldway, New Addington, Croydon CR0 0QA",
      "postCode":"CR0 0QA",
      "stationType":"Light Rail Station",
      "longitude":-0.0240862,
      "latitude":51.3509549
   },
   {
      "name":"Finchley Central",
      "zone":"Zone 4",
      "address":"Finchley Central Station, Regents Park Rd, London N3 2RY, UK",
      "postCode":"N3 2RY",
      "stationType":"Subway Station",
      "longitude":-0.1923985,
      "latitude":51.601046
   },
   {
      "name":"Finchley Road",
      "zone":"Zone 2",
      "address":"Finchley Road Station, Finchley Rd, London NW3 6OP, UK",
      "postCode":"NW3 6OP",
      "stationType":"Subway Station",
      "longitude":-0.1801549,
      "latitude":51.5470059
   },
   {
      "name":"Finchley Road & Frognal",
      "zone":"Zone 2",
      "address":"Finchley Road & Frognal, London NW3 6EP",
      "postCode":"NW3 6EP",
      "stationType":"Train Station",
      "longitude":-0.18312,
      "latitude":51.55027
   },
   {
      "name":"Finsbury Park",
      "zone":"Zone 2",
      "address":"Finsbury Park, London N4 2DH",
      "postCode":"N4 2DH",
      "stationType":"Train Station",
      "longitude":-0.10626,
      "latitude":51.5643
   },
   {
      "name":"Forest Gate",
      "zone":"Zone 3",
      "address":"Forest Gate, London E7 0NE",
      "postCode":"E7 0NE",
      "stationType":"Train Station",
      "longitude":0.02438,
      "latitude":51.54943
   },
   {
      "name":"Forest Hill",
      "zone":"Zone 3",
      "address":"Forest Hill, London SE23 3HB",
      "postCode":"SE23 3HB",
      "stationType":"Train Station",
      "longitude":-0.05313,
      "latitude":51.43928
   },
   {
      "name":"Fulham Broadway",
      "zone":"Zone 2",
      "address":"Fulham Broadway Station, Fulham, London SW6 1BW",
      "postCode":"SW6 1BW",
      "stationType":"Subway Station",
      "longitude":-0.1944376,
      "latitude":51.4802127
   },
   {
      "name":"Gallions Reach",
      "zone":"Zone 3",
      "address":"Gallions Reach, London E6 7AB",
      "postCode":"E6 7AB",
      "stationType":"Train Station",
      "longitude":0.071855,
      "latitude":51.5090644
   },
   {
      "name":"Gants Hill",
      "zone":"Zone 4",
      "address":"Gants Hill, 369 Eastern Ave, Ilford IG2 6UD, UK",
      "postCode":"IG2 6UD",
      "stationType":"Subway Station",
      "longitude":0.06611,
      "latitude":51.576554
   },
   {
      "name":"George Street",
      "zone":"Special",
      "address":"George Street, London E16 1EB",
      "postCode":"E16 1EB",
      "stationType":"Bus Station",
      "longitude":0.0110116,
      "latitude":51.5120716
   },
   {
      "name":"Gidea Park",
      "zone":"Zone 6",
      "address":"Gidea Park, Station Rd, Romford RM2 6BX, UK",
      "postCode":"RM2 6BX",
      "stationType":"Train Station",
      "longitude":0.2057849,
      "latitude":51.5815288
   },
   {
      "name":"Gloucester Road",
      "zone":"Zone 1",
      "address":"Gloucester Road, Gloucester Rd, Kensington, London SW7 4SF, UK",
      "postCode":"SW7 4SF",
      "stationType":"Subway Station",
      "longitude":-0.1827319,
      "latitude":51.4944052
   },
   {
      "name":"Golders Green",
      "zone":"Zone 3",
      "address":"Golders Green Station, North End Rd, London NW11 7RN, UK",
      "postCode":"NW11 7RN",
      "stationType":"Subway Station",
      "longitude":-0.1940843,
      "latitude":51.5722898
   },
   {
      "name":"Goldhawk Road",
      "zone":"Zone 2",
      "address":"Goldhawk Road Station, Goldhawk Rd, London W12 8EG, UK",
      "postCode":"W12 8EG",
      "stationType":"Subway Station",
      "longitude":-0.2265205,
      "latitude":51.5019519
   },
   {
      "name":"Goodge Street",
      "zone":"Zone 1",
      "address":"Goodge Street Station, Fitzrovia, London W1T",
      "postCode":"W1T",
      "stationType":"Transit Station",
      "longitude":-0.1346317,
      "latitude":51.5204966
   },
   {
      "name":"Goodmayes",
      "zone":"Zone 4",
      "address":"Goodmayes, Ilford IG3 9UH",
      "postCode":"IG3 9UH",
      "stationType":"Train Station",
      "longitude":0.11083,
      "latitude":51.56558
   },
   {
      "name":"Gospel Oak",
      "zone":"Zone 2",
      "address":"Gospel Oak, Gordon House Rd, London NW5 1LT, UK",
      "postCode":"NW5 1LT",
      "stationType":"Train Station",
      "longitude":-0.1511883,
      "latitude":51.5552471
   },
   {
      "name":"Grange Hill",
      "zone":"Zone 4",
      "address":"Grange Hill Station, Manor Rd, Chigwell IG7 5QB, UK",
      "postCode":"IG7 5QB",
      "stationType":"Subway Station",
      "longitude":0.0921236,
      "latitude":51.6133964
   },
   {
      "name":"Gravel Hill",
      "zone":"Special",
      "address":"Gravel Hill Tram Stop, South Croydon, Croydon CR0 5BJ",
      "postCode":"CR0 5BJ",
      "stationType":"Light Rail Station",
      "longitude":-0.04312,
      "latitude":51.35454
   },
   {
      "name":"Great Portland Street",
      "zone":"Zone 1",
      "address":"Great Portland Street, Fitzrovia, London W1W 5PW",
      "postCode":"W1W 5PW",
      "stationType":"Subway Station",
      "longitude":-0.1439184,
      "latitude":51.5237421
   },
   {
      "name":"Greenford",
      "zone":"Zone 4",
      "address":"Greenford Station, UB6 8PX Oldfield Ln N, Greenford UB6 8PX, UK",
      "postCode":"UB6 8PX",
      "stationType":"Subway Station",
      "longitude":-0.3463409,
      "latitude":51.5423225
   },
   {
      "name":"Green Park",
      "zone":"Zone 1",
      "address":"Green Park Station, Mayfair, London W1J 8AQ",
      "postCode":"W1J 8AQ",
      "stationType":"Subway Station",
      "longitude":-0.1428496,
      "latitude":51.5069125
   },
   {
      "name":"Greenwich",
      "zone":"Zone 2/3",
      "address":"Greenwich, Lambard House, Greenwich High Rd, London, Greenwich SE10 8JQ, UK",
      "postCode":"SE10 8JQ",
      "stationType":"Train Station",
      "longitude":-0.0142157,
      "latitude":51.4781322
   },
   {
      "name":"Gunnersbury",
      "zone":"Zone 3",
      "address":"Gunnersbury, Chiswick, London W4 4AN",
      "postCode":"W4 4AN",
      "stationType":"Subway Station",
      "longitude":-0.2753862,
      "latitude":51.4915176
   },
   {
      "name":"Hackney Central",
      "zone":"Zone 2",
      "address":"Hackney Central, off Amhurst Road, London E8 1LL, UK",
      "postCode":"E8 1LL",
      "stationType":"Train Station",
      "longitude":-0.0568205,
      "latitude":51.5471242
   },
   {
      "name":"Hackney Downs",
      "zone":"Zone 2",
      "address":"Hackney Downs, London E8 1LX",
      "postCode":"E8 1LX",
      "stationType":"Train Station",
      "longitude":-0.06079,
      "latitude":51.54876
   },
   {
      "name":"Hackney Wick",
      "zone":"Zone 2",
      "address":"Hackney Wick, Wallis Rd, London E9 5LN, UK",
      "postCode":"E9 5LN",
      "stationType":"Train Station",
      "longitude":-0.024,
      "latitude":51.5435094
   },
   {
      "name":"Haggerston",
      "zone":"Zone 2",
      "address":"Haggerston, London E8 4DY",
      "postCode":"E8 4DY",
      "stationType":"Train Station",
      "longitude":-0.0754174,
      "latitude":51.5387642
   },
   {
      "name":"Hainault",
      "zone":"Zone 4",
      "address":"Hainault London Underground Station, 194 New N Rd, Ilford IG6 2UY, UK",
      "postCode":"IG6 2UY",
      "stationType":"Subway Station",
      "longitude":0.0930816,
      "latitude":51.6037674
   },
   {
      "name":"Hammersmith",
      "zone":"Zone 2",
      "address":"Hammersmith Station, Metropolitan Station Buildings, Beadon Rd, London W6 7AA, UK",
      "postCode":"W6 7AA",
      "stationType":"Subway Station",
      "longitude":-0.2249044,
      "latitude":51.4935039
   },
   {
      "name":"Hampstead",
      "zone":"Zone 2/3",
      "address":"Hampstead Station, Hampstead High St, London NW3 1QA, UK",
      "postCode":"NW3 1QA",
      "stationType":"Subway Station",
      "longitude":-0.1783111,
      "latitude":51.556664
   },
   {
      "name":"Hampstead Heath",
      "zone":"Zone 2",
      "address":"Hampstead Heath, London NW3 2QD",
      "postCode":"NW3 2QD",
      "stationType":"Train Station",
      "longitude":-0.16568,
      "latitude":51.55521
   },
   {
      "name":"Hanger Lane",
      "zone":"Zone 3",
      "address":"Hanger Lane Station, Hanger Ln, London W5 1DL, UK",
      "postCode":"W5 1DL",
      "stationType":"Subway Station",
      "longitude":-0.2930332,
      "latitude":51.5300473
   },
   {
      "name":"Harlesden",
      "zone":"Zone 3",
      "address":"Harlesden Station, London NW10 8PU",
      "postCode":"NW10 8PU",
      "stationType":"Subway Station",
      "longitude":-0.2577634,
      "latitude":51.5363886
   },
   {
      "name":"Harold Wood",
      "zone":"Zone 6",
      "address":"Harold Wood, Romford RM3 0PH",
      "postCode":"RM3 0PH",
      "stationType":"Train Station",
      "longitude":0.23315,
      "latitude":51.59277
   },
   {
      "name":"Harringay Green Lanes",
      "zone":"Zone 3",
      "address":"Harringay Green Lanes, Harringay, London N4 1DR",
      "postCode":"N4 1DR",
      "stationType":"Train Station",
      "longitude":-0.0981366,
      "latitude":51.5772146
   },
   {
      "name":"Harrington Road",
      "zone":"Special",
      "address":"Harrington Road, Harrington Rd, London SE25, UK",
      "postCode":"SE25 4NF",
      "stationType":"Light Rail Station",
      "longitude":-0.0605205,
      "latitude":51.3996301
   },
   {
      "name":"Harrow & Wealdstone",
      "zone":"Zone 5",
      "address":"Harrow & Wealdstone, Harrow HA3 5AG",
      "postCode":"HA3 5AG",
      "stationType":"Subway Station",
      "longitude":-0.3346241,
      "latitude":51.5922084
   },
   {
      "name":"Harrow-on-the-Hill",
      "zone":"Zone 5",
      "address":"Harrow-on-the-Hill, Station Approach, Harrow HA1 1BB, UK",
      "postCode":"HA1 1BB",
      "stationType":"Train Station",
      "longitude":-0.3372,
      "latitude":51.57919
   },
   {
      "name":"Hatch End",
      "zone":"Zone 6",
      "address":"Hatch End, Pinner HA5 4HU",
      "postCode":"HA5 4HU",
      "stationType":"Train Station",
      "longitude":-0.36858,
      "latitude":51.60942
   },
   {
      "name":"Hatton Cross",
      "zone":"Zone 5/6",
      "address":"Hatton Cross Station, Great South West Rd, Longford, Hounslow TW6 3PF, UK",
      "postCode":"TW6 3PF",
      "stationType":"Subway Station",
      "longitude":-0.42317,
      "latitude":51.46674
   },
   {
      "name":"Headstone Lane",
      "zone":"Zone 5",
      "address":"Headstone Lane, Harrow HA2 6NQ",
      "postCode":"HA2 6NQ",
      "stationType":"Train Station",
      "longitude":-0.3572646,
      "latitude":51.6025787
   },
   {
      "name":"Heathrow Terminals 2 & 3",
      "zone":"Zone 6",
      "address":"Heathrow Central Bus Station, Wellington Rd, Longford, Hounslow TW6 1JH, UK",
      "postCode":"TW6 1JH",
      "stationType":"Subway Station",
      "longitude":-0.45224,
      "latitude":51.47123
   },
   {
      "name":"Heathrow Terminal 4",
      "zone":"Zone 6",
      "address":"Heathrow Terminal 4, Terminal 1, Hounslow, Greater London TW6 1AP, UK",
      "postCode":"TW6 1AP",
      "stationType":"Subway Station",
      "longitude":-0.4463621,
      "latitude":51.4585478
   },
   {
      "name":"Heathrow Terminal 5",
      "zone":"Zone 6",
      "address":"Heathrow Terminal 5, Complex Terminal 5, Heathrow Airport, London TW6 2GA, UK",
      "postCode":"TW6 2GA",
      "stationType":"Subway Station",
      "longitude":-0.4871378,
      "latitude":51.4726054
   },
   {
      "name":"Hendon Central",
      "zone":"Zone 3/4",
      "address":"Hendon Central Station, London NW4 3AS",
      "postCode":"NW4 3AS",
      "stationType":"Subway Station",
      "longitude":-0.2267304,
      "latitude":51.5830996
   },
   {
      "name":"Heron Quays",
      "zone":"Zone 2",
      "address":"Heron Quays, Canary Wharf, London E14 4AD",
      "postCode":"E14 4AD",
      "stationType":"Train Station",
      "longitude":-0.0215621,
      "latitude":51.5029956
   },
   {
      "name":"Highams Park",
      "zone":"Zone 4",
      "address":"Highams Park, London E4 9LA",
      "postCode":"E4 9LA",
      "stationType":"Train Station",
      "longitude":-2.0E-4,
      "latitude":51.60835
   },
   {
      "name":"High Barnet",
      "zone":"Zone 5",
      "address":"High Barnet Station, Barnet Hill, Barnet EN5 5RP, UK",
      "postCode":"EN5 5RP",
      "stationType":"Subway Station",
      "longitude":-0.19427,
      "latitude":51.65054
   },
   {
      "name":"Highbury & Islington",
      "zone":"Zone 2",
      "address":"Highbury & Islington, Holloway Rd, London N5 1RA, UK",
      "postCode":"N5 1RA",
      "stationType":"Subway Station",
      "longitude":-0.1042215,
      "latitude":51.5460768
   },
   {
      "name":"Highgate",
      "zone":"Zone 3",
      "address":"Highgate Station, Archway Rd, London N6, UK",
      "postCode":"N6",
      "stationType":"Subway Station",
      "longitude":-0.1457427,
      "latitude":51.577385
   },
   {
      "name":"High Street Kensington",
      "zone":"Zone 1",
      "address":"High Street Kensington Station, Kensington High St, Kensington, London W8 5SA, UK",
      "postCode":"W8 5SA",
      "stationType":"Subway Station",
      "longitude":-0.1926946,
      "latitude":51.500977
   },
   {
      "name":"Hillingdon",
      "zone":"Zone 6",
      "address":"Hillingdon, Long Ln, Uxbridge UB10 9NR, UK",
      "postCode":"UB10 9NR",
      "stationType":"Subway Station",
      "longitude":-0.449877,
      "latitude":51.553778
   },
   {
      "name":"Holborn",
      "zone":"Zone 1",
      "address":"Holborn Station, Kingsway, London WC2B 6AA, UK",
      "postCode":"WC2B 6AA",
      "stationType":"Subway Station",
      "longitude":-0.1200183,
      "latitude":51.5174137
   },
   {
      "name":"Holland Park",
      "zone":"Zone 2",
      "address":"Holland Park Station, Holland Park Ave, London W11 3RB, UK",
      "postCode":"W11 3RB",
      "stationType":"Subway Station",
      "longitude":-0.2056419,
      "latitude":51.5073905
   },
   {
      "name":"Holloway Road",
      "zone":"Zone 2",
      "address":"Holloway Road, 297 Holloway Rd, London N7 8HS, UK",
      "postCode":"N7 8HS",
      "stationType":"Subway Station",
      "longitude":-0.1128281,
      "latitude":51.5528181
   },
   {
      "name":"Homerton",
      "zone":"Zone 2",
      "address":"Homerton, London E9 5SE",
      "postCode":"E9 5SE",
      "stationType":"Train Station",
      "longitude":-0.0423364,
      "latitude":51.5469711
   },
   {
      "name":"Honor Oak Park",
      "zone":"Zone 3",
      "address":"Honor Oak Park, London SE23 1EB",
      "postCode":"SE23 1EB",
      "stationType":"Train Station",
      "longitude":-0.04548,
      "latitude":51.44999
   },
   {
      "name":"Hornchurch",
      "zone":"Zone 6",
      "address":"Hornchurch Station, Station Ln, Hornchurch RM12 6LL, UK",
      "postCode":"RM12 6LL",
      "stationType":"Subway Station",
      "longitude":0.2190554,
      "latitude":51.5540777
   },
   {
      "name":"Hounslow Central",
      "zone":"Zone 4",
      "address":"Hounslow Central Station, Lampton Rd, Hounslow TW3 1JG, UK",
      "postCode":"TW3 1JG",
      "stationType":"Subway Station",
      "longitude":-0.366804,
      "latitude":51.4711699
   },
   {
      "name":"Hounslow East",
      "zone":"Zone 4",
      "address":"Hounslow East, Hounslow TW3 4AA",
      "postCode":"TW3 4AA",
      "stationType":"Subway Station",
      "longitude":-0.3564974,
      "latitude":51.4730369
   },
   {
      "name":"Hounslow West",
      "zone":"Zone 5",
      "address":"Hounslow West Station, Bath Rd, Hounslow TW3 3DH, UK",
      "postCode":"TW3 3DH",
      "stationType":"Subway Station",
      "longitude":-0.3857443,
      "latitude":51.4731184
   },
   {
      "name":"Hoxton",
      "zone":"Zone 1/2",
      "address":"Hoxton, Geffrye St, London E2 8FF, UK",
      "postCode":"E2 8FF",
      "stationType":"Train Station",
      "longitude":-0.0757789,
      "latitude":51.5313357
   },
   {
      "name":"Hyde Park Corner",
      "zone":"Zone 1",
      "address":"Hyde Park Corner, Knightsbridge, London SW1X 7LY, UK",
      "postCode":"SW1X 7LY",
      "stationType":"Subway Station",
      "longitude":-0.152723,
      "latitude":51.5029658
   },
   {
      "name":"Ickenham",
      "zone":"Zone 6",
      "address":"Ickenham Station, Glebe Ave, Ickenham, Uxbridge UB10 8PD, UK",
      "postCode":"UB10 8PD",
      "stationType":"Subway Station",
      "longitude":-0.441978,
      "latitude":51.562045
   },
   {
      "name":"Ilford",
      "zone":"Zone 4",
      "address":"Ilford IG1 4EG",
      "postCode":"IG1 4EG",
      "stationType":"Train Station",
      "longitude":0.06971,
      "latitude":51.55912
   },
   {
      "name":"Imperial Wharf",
      "zone":"Zone 2",
      "address":"Imperial Wharf, Fulham, London SW10 0XD",
      "postCode":"SW10 0XD",
      "stationType":"Train Station",
      "longitude":-0.1828,
      "latitude":51.47495
   },
   {
      "name":"Island Gardens",
      "zone":"Zone 2",
      "address":"Island Gardens, Isle of Dogs, London E14 3GR",
      "postCode":"E14 3GR",
      "stationType":"Light Rail Station",
      "longitude":-0.0104801,
      "latitude":51.4880905
   },
   {
      "name":"Kennington",
      "zone":"Zone 2",
      "address":"Kennington, London SE11 4EE",
      "postCode":"SE11 4EE",
      "stationType":"Subway Station",
      "longitude":-0.10594,
      "latitude":51.48833
   },
   {
      "name":"Kensal Green",
      "zone":"Zone 2",
      "address":"Kensal Green, Harrow Rd, London NW10, UK",
      "postCode":"NW10 5JT",
      "stationType":"Subway Station",
      "longitude":-0.2246296,
      "latitude":51.5305299
   },
   {
      "name":"Kensal Rise",
      "zone":"Zone 2",
      "address":"Kensal Rise, London NW10 3JA",
      "postCode":"NW10 3JA",
      "stationType":"Train Station",
      "longitude":-0.21993,
      "latitude":51.53455
   },
   {
      "name":"Kensington (Olympia)",
      "zone":"Zone 2",
      "address":"Kensington (Olympia), London W14 0NE",
      "postCode":"W14 0NE",
      "stationType":"Train Station",
      "longitude":-0.2099019,
      "latitude":51.4977808
   },
   {
      "name":"Kentish Town",
      "zone":"Zone 2",
      "address":"Kentish Town, London NW5 2AA",
      "postCode":"NW5 2AA",
      "stationType":"Subway Station",
      "longitude":-0.140503,
      "latitude":51.5503528
   },
   {
      "name":"Kentish Town West",
      "zone":"Zone 2",
      "address":"Kentish Town West, London NW5 3LL",
      "postCode":"NW5 3LL",
      "stationType":"Train Station",
      "longitude":-0.14663,
      "latitude":51.54655
   },
   {
      "name":"Kenton",
      "zone":"Zone 4",
      "address":"Kenton Station, 135 Kenton Rd, Harrow HA3 0AZ, UK",
      "postCode":"HA3 0AZ",
      "stationType":"Subway Station",
      "longitude":-0.317129,
      "latitude":51.581849
   },
   {
      "name":"Kew Gardens",
      "zone":"Zone 3/4",
      "address":"Kew Gardens Station, Richmond TW9 3QA",
      "postCode":"TW9 3QA",
      "stationType":"Subway Station",
      "longitude":-0.285129,
      "latitude":51.4769928
   },
   {
      "name":"Kilburn",
      "zone":"Zone 2",
      "address":"Kilburn Station, Kilburn Station Kiosk Shoot Up Hill, London NW6 5UA, UK",
      "postCode":"NW6 5UA",
      "stationType":"Subway Station",
      "longitude":-0.2040929,
      "latitude":51.5468949
   },
   {
      "name":"Kilburn High Road",
      "zone":"Zone 2",
      "address":"Kilburn High Road, Kilburn High Rd, North Maida Vale, London NW6 5UA, UK",
      "postCode":"NW6 5UA",
      "stationType":"Train Station",
      "longitude":-0.1923086,
      "latitude":51.5372534
   },
   {
      "name":"Kilburn Park",
      "zone":"Zone 2",
      "address":"Kilburn Park Station, Cambridge Ave, North Maida Vale, London NW6 5AD, UK",
      "postCode":"NW6 5AD",
      "stationType":"Subway Station",
      "longitude":-0.1938149,
      "latitude":51.5350086
   },
   {
      "name":"King George V",
      "zone":"Zone 3",
      "address":"King George V, London E16 2JF",
      "postCode":"E16 2JF",
      "stationType":"Light Rail Station",
      "longitude":0.0623791,
      "latitude":51.5020067
   },
   {
      "name":"King Henryâ€™s Drive",
      "zone":"Special",
      "address":"King Henry's Drive, Parkway, New Addington, Croydon CR0 0JA, UK",
      "postCode":"CR0 0JA",
      "stationType":"Light Rail Station",
      "longitude":-0.0203226,
      "latitude":51.3453551
   },
   {
      "name":"Kingâ€™s Cross St. Pancras",
      "zone":"Zone 1",
      "address":"King's Cross St. Pancras London Underground Station, Euston Rd, Kings Cross, London N1 9AL, UK",
      "postCode":"N1 9AL",
      "stationType":"Subway Station",
      "longitude":-0.1238148,
      "latitude":51.5304203
   },
   {
      "name":"Kingsbury",
      "zone":"Zone 4",
      "address":"Kingsbury Station, Kingsbury Rd, London NW9 9EG, UK",
      "postCode":"NW9 9EG",
      "stationType":"Subway Station",
      "longitude":-0.2787581,
      "latitude":51.584831
   },
   {
      "name":"Knightsbridge",
      "zone":"Zone 1",
      "address":"Knightsbridge Station, Sloane St, Knightsbridge, London SW1, UK",
      "postCode":"SW1",
      "stationType":"Subway Station",
      "longitude":-0.1603321,
      "latitude":51.5018051
   },
   {
      "name":"Ladbroke Grove",
      "zone":"Zone 2",
      "address":"Ladbroke Grove Station, Ladbroke Grove, London W10 6HJ, UK",
      "postCode":"W10 6HJ",
      "stationType":"Subway Station",
      "longitude":-0.2105242,
      "latitude":51.5173551
   },
   {
      "name":"Lambeth North",
      "zone":"Zone 1",
      "address":"Lambeth North Station, 110 Westminster Bridge Rd, Lambeth, London SE1 7XG, UK",
      "postCode":"SE1 7XG",
      "stationType":"Subway Station",
      "longitude":-0.1120223,
      "latitude":51.4989094
   },
   {
      "name":"Lancaster Gate",
      "zone":"Zone 1",
      "address":"Lancaster Gate Station, Bayswater Rd, London W2, UK",
      "postCode":"W2",
      "stationType":"Subway Station",
      "longitude":-0.1753717,
      "latitude":51.5118369
   },
   {
      "name":"Langdon Park",
      "zone":"Zone 2",
      "address":"Langdon Park, Poplar, London E14 0RZ",
      "postCode":"E14 0RZ",
      "stationType":"Train Station",
      "longitude":-0.0141235,
      "latitude":51.5152196
   },
   {
      "name":"Latimer Road",
      "zone":"Zone 2",
      "address":"Latimer Road, Bramley Rd, London W10 6SZ, UK",
      "postCode":"W10 6SZ",
      "stationType":"Subway Station",
      "longitude":-0.2177241,
      "latitude":51.5135396
   },
   {
      "name":"Lebanon Road",
      "zone":"Special",
      "address":"Lebanon Road Tram Stop, Croydon CR0 6SF",
      "postCode":"CR0 6SF",
      "stationType":"Light Rail Station",
      "longitude":-0.08498,
      "latitude":51.3752
   },
   {
      "name":"Leicester Square",
      "zone":"Zone 1",
      "address":"Leicester Square Station, Cranbourn St, London WC2H 0AP, UK",
      "postCode":"WC2H 0AP",
      "stationType":"Subway Station",
      "longitude":-0.1284,
      "latitude":51.5113517
   },
   {
      "name":"Lewisham",
      "zone":"Zone 2/3",
      "address":"Lewisham, London SE13 7RY",
      "postCode":"SE13 7RY",
      "stationType":"Train Station",
      "longitude":-0.014,
      "latitude":51.46569
   },
   {
      "name":"Leyton",
      "zone":"Zone 3",
      "address":"Leyton Station, High Rd, Leyton, London E10 5PS, UK",
      "postCode":"E10 5PS",
      "stationType":"Subway Station",
      "longitude":-0.005614,
      "latitude":51.556501
   },
   {
      "name":"Leyton Midland Road",
      "zone":"Zone 3",
      "address":"Leyton Midland Road, Midland Rd, London, Leyton E10 6JT, UK",
      "postCode":"E10 6JT",
      "stationType":"Train Station",
      "longitude":-0.0073296,
      "latitude":51.5694651
   },
   {
      "name":"Leytonstone",
      "zone":"Zone 3/4",
      "address":"Leytonstone Station, Church Ln, London E11 1HE, UK",
      "postCode":"E11 1HE",
      "stationType":"Subway Station",
      "longitude":0.0084708,
      "latitude":51.5682743
   },
   {
      "name":"Leytonstone High Road",
      "zone":"Zone 3",
      "address":"Leytonstone High Road London Overground Station, Cranleigh Rd, London E11 4RE, UK",
      "postCode":"E11 4RE",
      "stationType":"Train Station",
      "longitude":0.008403,
      "latitude":51.563609
   },
   {
      "name":"Limehouse",
      "zone":"Zone 2",
      "address":"Limehouse, London E14 7JE",
      "postCode":"E14 7JE",
      "stationType":"Train Station",
      "longitude":-0.0396954,
      "latitude":51.5125451
   },
   {
      "name":"Liverpool Street",
      "zone":"Zone 1",
      "address":"Liverpool Street Station, Liverpool St, London EC2M 7QH, UK",
      "postCode":"EC2M 7QH",
      "stationType":"Train Station",
      "longitude":-0.0814374,
      "latitude":51.5187516
   },
   {
      "name":"Lloyd Park",
      "zone":"Special",
      "address":"Lloyd Park, Coombe Rd, Croydon CR0 5RA, UK",
      "postCode":"CR0 5RA",
      "stationType":"Light Rail Station",
      "longitude":-0.0806713,
      "latitude":51.3641441
   },
   {
      "name":"London Bridge",
      "zone":"Zone 1",
      "address":"London Bridge Station, 21 Duke St Hill, London SE1 2SW, UK",
      "postCode":"SE1 2SW",
      "stationType":"Subway Station",
      "longitude":-0.0875899,
      "latitude":51.5054244
   },
   {
      "name":"London City Airport",
      "zone":"Zone 3",
      "address":"London City Airport, London E16 2QQ",
      "postCode":"E16 2QQ",
      "stationType":"Train Station",
      "longitude":0.048077,
      "latitude":51.5036953
   },
   {
      "name":"London Fields",
      "zone":"Zone 2",
      "address":"London Fields, London E8",
      "postCode":"E8",
      "stationType":"Train Station",
      "longitude":-0.05773,
      "latitude":51.54115
   },
   {
      "name":"Loughton",
      "zone":"Zone 6",
      "address":"Loughton IG10 4PD",
      "postCode":"IG10 4PD",
      "stationType":"Subway Station",
      "longitude":0.0555,
      "latitude":51.64144
   },
   {
      "name":"Maida Vale",
      "zone":"Zone 2",
      "address":"Maida Vale Station, Elgin Ave, London W9 1JS, UK",
      "postCode":"W9 1JS",
      "stationType":"Subway Station",
      "longitude":-0.1857587,
      "latitude":51.5298494
   },
   {
      "name":"Manor House",
      "zone":"Zone 2/3",
      "address":"Manor House Station, Green Lanes, Harringay, London N4 1BZ, UK",
      "postCode":"N4 1BZ",
      "stationType":"Subway Station",
      "longitude":-0.0961058,
      "latitude":51.5708406
   },
   {
      "name":"Manor Park",
      "zone":"Zone 3/4",
      "address":"Manor Park, London E12 5BU",
      "postCode":"E12 5BU",
      "stationType":"Train Station",
      "longitude":0.04637,
      "latitude":51.55247
   },
   {
      "name":"Mansion House",
      "zone":"Zone 1",
      "address":"Mansion House Station, 38 Cannon St, London EC4N 6JD, UK",
      "postCode":"EC4N 6JD",
      "stationType":"Subway Station",
      "longitude":-0.0940433,
      "latitude":51.5120758
   },
   {
      "name":"Marble Arch",
      "zone":"Zone 1",
      "address":"Marble Arch Station, Oxford St, London W1C 1CX, UK",
      "postCode":"W1C 1CX",
      "stationType":"Subway Station",
      "longitude":-0.15893,
      "latitude":51.51342
   },
   {
      "name":"Maryland",
      "zone":"Zone 3",
      "address":"Maryland Railway Station, 2 Leytonstone Rd, London E15 1SA, UK",
      "postCode":"E15 1SA",
      "stationType":"Subway Station",
      "longitude":0.0059036,
      "latitude":51.5461232
   },
   {
      "name":"Marylebone",
      "zone":"Zone 1",
      "address":"Marylebone Station, Great Central House, Melcombe Pl, Marylebone, London NW1 6JJ, UK",
      "postCode":"NW1 6JJ",
      "stationType":"Train Station",
      "longitude":-0.1632761,
      "latitude":51.5225573
   },
   {
      "name":"Mile End",
      "zone":"Zone 2",
      "address":"London Mile End, London E3 4SS",
      "postCode":"E3 4SS",
      "stationType":"Subway Station",
      "longitude":-0.0334172,
      "latitude":51.5251447
   },
   {
      "name":"Mill Hill East",
      "zone":"Zone 4",
      "address":"Mill Hill East Station, Bittacy Hill, London NW7 1BS, UK",
      "postCode":"NW7 1BS",
      "stationType":"Subway Station",
      "longitude":-0.2100592,
      "latitude":51.6083183
   },
   {
      "name":"Mitcham",
      "zone":"Special",
      "address":"Mitcham Tramlink Stop, CR4 4BG Tramway Path, Mitcham CR4 4BD, UK",
      "postCode":"CR4 4BD",
      "stationType":"Light Rail Station",
      "longitude":-0.17087,
      "latitude":51.39749
   },
   {
      "name":"Mitcham Junction",
      "zone":"Special",
      "address":"Mitcham Junction, Mitcham CR4 4HN",
      "postCode":"CR4 4HN",
      "stationType":"Train Station",
      "longitude":-0.15773,
      "latitude":51.39295
   },
   {
      "name":"Monument",
      "zone":"Zone 1",
      "address":"Bank Station, London EC3V 9AY",
      "postCode":"EC3V 9AY",
      "stationType":"Light Rail Station",
      "longitude":-0.0884131,
      "latitude":51.5132104
   },
   {
      "name":"Moor Park",
      "zone":"Zone 6/7",
      "address":"Moor Park, Sandy Lodge Rd, Rickmansworth, Northwood HA6 2JQ, UK",
      "postCode":"HA6 2JQ",
      "stationType":"Subway Station",
      "longitude":-0.4322937,
      "latitude":51.6297228
   },
   {
      "name":"Moorgate",
      "zone":"Zone 1",
      "address":"Moorgate, London EC2M, UK",
      "postCode":"EC2M",
      "stationType":"Subway Station",
      "longitude":-0.0883428,
      "latitude":51.5184261
   },
   {
      "name":"Morden",
      "zone":"Zone 4",
      "address":"Morden Station, London Rd, Morden SM4 5AZ, UK",
      "postCode":"SM4 5AZ",
      "stationType":"Subway Station",
      "longitude":-0.1947058,
      "latitude":51.4022536
   },
   {
      "name":"Mornington Crescent",
      "zone":"Zone 2",
      "address":"Mornington Crescent, Kings Cross, London NW1 2JA",
      "postCode":"NW1 2JA",
      "stationType":"Subway Station",
      "longitude":-0.1388607,
      "latitude":51.5343884
   },
   {
      "name":"Mudchute",
      "zone":"Zone 2",
      "address":"Mudchute, Spindrift Ave, Isle of Dogs, London E14, UK",
      "postCode":"E14 9US",
      "stationType":"Train Station",
      "longitude":-0.0150064,
      "latitude":51.4914251
   },
   {
      "name":"Neasden",
      "zone":"Zone 3",
      "address":"Neasden Station, London NW10 1PH",
      "postCode":"NW10 1PH",
      "stationType":"Subway Station",
      "longitude":-0.2497985,
      "latitude":51.5540258
   },
   {
      "name":"New Addington",
      "zone":"Special",
      "address":"New Addington, Croydon CR0 0JW",
      "postCode":"CR0 0JW",
      "stationType":"Light Rail Station",
      "longitude":-0.0173739,
      "latitude":51.3425917
   },
   {
      "name":"Newbury Park",
      "zone":"Zone 4",
      "address":"Newbury Park, Ilford IG2 7RN",
      "postCode":"IG2 7RN",
      "stationType":"Subway Station",
      "longitude":0.0902517,
      "latitude":51.5757177
   },
   {
      "name":"New Cross",
      "zone":"Zone 2",
      "address":"New Cross, Amersham Vale, London SE14 6LD, UK",
      "postCode":"SE14 6LD",
      "stationType":"Train Station",
      "longitude":-0.0324551,
      "latitude":51.4765405
   },
   {
      "name":"New Cross Gate",
      "zone":"Zone 2",
      "address":"New Cross Gate, New Cross Rd, London SE14 6AR, UK",
      "postCode":"SE14 6AR",
      "stationType":"Train Station",
      "longitude":-0.0404564,
      "latitude":51.4753476
   },
   {
      "name":"North Acton",
      "zone":"Zone 2/3",
      "address":"North Acton, London W3 6UP",
      "postCode":"W3 6UP",
      "stationType":"Subway Station",
      "longitude":-0.25973,
      "latitude":51.52353
   },
   {
      "name":"North Ealing",
      "zone":"Zone 3",
      "address":"North Ealing Station, Station Rd, London W5, UK",
      "postCode":"W5 3AF",
      "stationType":"Subway Station",
      "longitude":-0.2890518,
      "latitude":51.5175661
   },
   {
      "name":"Northfields",
      "zone":"Zone 4",
      "address":"Northfields Station, Northfield Ave, London W13 9QU, UK",
      "postCode":"W13 9QU",
      "stationType":"Subway Station",
      "longitude":-0.314119,
      "latitude":51.499345
   },
   {
      "name":"North Greenwich",
      "zone":"Zone 2/3",
      "address":"North Greenwich Station, 5 Millenium Way, London SE10 0PH, UK",
      "postCode":"SE10 0PH",
      "stationType":"Subway Station",
      "longitude":0.0035842,
      "latitude":51.5002452
   },
   {
      "name":"North Harrow",
      "zone":"Zone 5",
      "address":"North Harrow Station, Station Rd, Harrow HA2 7SR, UK",
      "postCode":"HA2 7SR",
      "stationType":"Subway Station",
      "longitude":-0.3624361,
      "latitude":51.5849594
   },
   {
      "name":"Northolt",
      "zone":"Zone 5",
      "address":"Northolt UB5 4AA",
      "postCode":"UB5 4AA",
      "stationType":"Subway Station",
      "longitude":-0.36868,
      "latitude":51.54823
   },
   {
      "name":"North Wembley",
      "zone":"Zone 4",
      "address":"North Wembley Station, East Ln, Wembley HA9 7NT",
      "postCode":"HA9 7NT",
      "stationType":"Subway Station",
      "longitude":-0.3041744,
      "latitude":51.5627803
   },
   {
      "name":"Northwick Park",
      "zone":"Zone 4",
      "address":"Northwick Park Station, Northwick Ave, Harrow HA3 0AT, UK",
      "postCode":"HA3 0AT",
      "stationType":"Subway Station",
      "longitude":-0.3179987,
      "latitude":51.5785423
   },
   {
      "name":"Northwood",
      "zone":"Zone 6",
      "address":"Northwood Station, Green Ln, Northwood HA6 2XL, UK",
      "postCode":"HA6 2XL",
      "stationType":"Subway Station",
      "longitude":-0.4238106,
      "latitude":51.6112577
   },
   {
      "name":"Northwood Hills",
      "zone":"Zone 6",
      "address":"Northwood Hills, Northwood HA6 1NZ",
      "postCode":"HA6 1NZ",
      "stationType":"Subway Station",
      "longitude":-0.4093261,
      "latitude":51.6006242
   },
   {
      "name":"Norwood Junction",
      "zone":"Zone 4",
      "address":"Norwood Junction, Station Rd, London SE25 5AG, UK",
      "postCode":"SE25 5AG",
      "stationType":"Train Station",
      "longitude":-0.07501,
      "latitude":51.39731
   },
   {
      "name":"Notting Hill Gate",
      "zone":"Zone 1/2",
      "address":"Notting Hill Gate, London W11 3HS",
      "postCode":"W11 3HS",
      "stationType":"Subway Station",
      "longitude":-0.1963068,
      "latitude":51.5090951
   },
   {
      "name":"Oakwood",
      "zone":"Zone 5",
      "address":"Oakwood Station, Bramley Rd, London N14, UK",
      "postCode":"N14 4UT",
      "stationType":"Subway Station",
      "longitude":-0.131827,
      "latitude":51.64764
   },
   {
      "name":"Old Street",
      "zone":"Zone 1",
      "address":"Old Street, St. Agnes Well, London EC1Y 1BE, United Kingdom",
      "postCode":"EC1Y 1BE",
      "stationType":"Subway Station",
      "longitude":-0.0875031,
      "latitude":51.5256774
   },
   {
      "name":"Osterley",
      "zone":"Zone 4",
      "address":"Osterley Station, Great West Rd, Isleworth TW7 4PU, UK",
      "postCode":"TW7 4PU",
      "stationType":"Subway Station",
      "longitude":-0.3519774,
      "latitude":51.4810309
   },
   {
      "name":"Oval",
      "zone":"Zone 2",
      "address":"Oval Station, 318 Kennington Park Rd, London SE11 4PP, UK",
      "postCode":"SE11 4PP",
      "stationType":"Subway Station",
      "longitude":-0.1127919,
      "latitude":51.4820214
   },
   {
      "name":"Oxford Circus",
      "zone":"Zone 1",
      "address":"Oxford Circus Station, Oxford St, Soho, London W1B 3AG, UK",
      "postCode":"W1B 3AG",
      "stationType":"Train Station",
      "longitude":-0.1418553,
      "latitude":51.5152117
   },
   {
      "name":"Paddington",
      "zone":"Zone 1",
      "address":"Paddington Station, Praed St, London W2, UK",
      "postCode":"W2",
      "stationType":"Train Station",
      "longitude":-0.1769328,
      "latitude":51.5166744
   },
   {
      "name":"Park Royal",
      "zone":"Zone 3",
      "address":"Park Royal, London W5 3EP",
      "postCode":"W5 3EP",
      "stationType":"Subway Station",
      "longitude":-0.284422,
      "latitude":51.5269845
   },
   {
      "name":"Parsons Green",
      "zone":"Zone 2",
      "address":"Parsons Green, Parsons Green Ln, Fulham, London SW6 4HS, UK",
      "postCode":"SW6 4HS",
      "stationType":"Subway Station",
      "longitude":-0.2009837,
      "latitude":51.4752842
   },
   {
      "name":"Peckham Rye",
      "zone":"Zone 2",
      "address":"Peckham Rye, Rye Ln, London SE15 4QL, UK",
      "postCode":"SE15 4QL",
      "stationType":"Train Station",
      "longitude":-0.0706618,
      "latitude":51.4694276
   },
   {
      "name":"Penge West",
      "zone":"Zone 4",
      "address":"Penge West, Anerley Park, London SE20, UK",
      "postCode":"SE20 8NY",
      "stationType":"Train Station",
      "longitude":-0.0607657,
      "latitude":51.4175264
   },
   {
      "name":"Perivale",
      "zone":"Zone 4",
      "address":"Perivale Station, Horsenden Lane, Perivale, Greenford Middx, UK",
      "postCode":"Middx",
      "stationType":"Subway Station",
      "longitude":-0.323377,
      "latitude":51.5366867
   },
   {
      "name":"Phipps Bridge",
      "zone":"Special",
      "address":"Phipps Bridge Tram Stop, Mitcham CR4 3QN",
      "postCode":"CR4 3QN",
      "stationType":"Light Rail Station",
      "longitude":-0.18229,
      "latitude":51.40338
   },
   {
      "name":"Piccadilly Circus",
      "zone":"Zone 1",
      "address":"Piccadilly Circus Station, London W1J 9HP, UK",
      "postCode":"W1J 9HP",
      "stationType":"Train Station",
      "longitude":-0.1341683,
      "latitude":51.510121
   },
   {
      "name":"Pimlico",
      "zone":"Zone 1",
      "address":"Pimlico, London SW1V 2PU",
      "postCode":"SW1V 2PU",
      "stationType":"Subway Station",
      "longitude":-0.13374,
      "latitude":51.4891
   },
   {
      "name":"Pinner",
      "zone":"Zone 5",
      "address":"Pinner Station, Station Approach, Pinner HA5 5LZ, UK",
      "postCode":"HA5 5LZ",
      "stationType":"Subway Station",
      "longitude":-0.3808567,
      "latitude":51.5928563
   },
   {
      "name":"Plaistow",
      "zone":"Zone 3",
      "address":"Plaistow Station, Plaistow Rd, London E13 0DY, UK",
      "postCode":"E13 0DY",
      "stationType":"Subway Station",
      "longitude":0.017887,
      "latitude":51.5312296
   },
   {
      "name":"Pontoon Dock",
      "zone":"Zone 3",
      "address":"Pontoon Dock, N Woolwich Rd, London E16, UK",
      "postCode":"E16 2HP",
      "stationType":"Light Rail Station",
      "longitude":0.0329465,
      "latitude":51.5021825
   },
   {
      "name":"Poplar",
      "zone":"Zone 2",
      "address":"Poplar, London E14 0AF",
      "postCode":"E14 0AF",
      "stationType":"Light Rail Station",
      "longitude":-0.0173579,
      "latitude":51.5077805
   },
   {
      "name":"Preston Road",
      "zone":"Zone 4",
      "address":"Preston Road Station, Wembley, Harrow HA3 0PS",
      "postCode":"HA3 0PS",
      "stationType":"Subway Station",
      "longitude":-0.2949345,
      "latitude":51.571976
   },
   {
      "name":"Prince Regent",
      "zone":"Zone 3",
      "address":"Prince Regent, Victoria Dock Rd, London E16, UK",
      "postCode":"E16 3DH",
      "stationType":"Train Station",
      "longitude":0.033344,
      "latitude":51.509465
   },
   {
      "name":"Pudding Mill Lane",
      "zone":"Zone 2/3",
      "address":"Pudding Mill Lane, London E15 2NQ",
      "postCode":"E15 2NQ",
      "stationType":"Train Station",
      "longitude":-0.0133586,
      "latitude":51.5340081
   },
   {
      "name":"Putney Bridge",
      "zone":"Zone 2",
      "address":"Putney, Putney High St, London SW15 1, UK",
      "postCode":"SW15 1",
      "stationType":"Train Station",
      "longitude":-0.2164913,
      "latitude":51.4611807
   },
   {
      "name":"Queensbury",
      "zone":"Zone 4",
      "address":"Queensbury Station, Cumberland Rd, Edgware, Stanmore HA7 1EL, UK",
      "postCode":"HA7 1EL",
      "stationType":"Subway Station",
      "longitude":-0.2861271,
      "latitude":51.5942415
   },
   {
      "name":"Queenâ€™s Park",
      "zone":"Zone 2",
      "address":"Queen's Park Station, London NW6 6NL",
      "postCode":"NW6 6NL",
      "stationType":"Train Station",
      "longitude":-0.20462,
      "latitude":51.5341503
   },
   {
      "name":"Queens Road Peckham",
      "zone":"Zone 2",
      "address":"Queens Road Peckham, London SE15 2ND",
      "postCode":"SE15 2ND",
      "stationType":"Train Station",
      "longitude":-0.0574173,
      "latitude":51.4736437
   },
   {
      "name":"Queensway",
      "zone":"Zone 1",
      "address":"Queensway Station, 17 Bayswater Rd, London W2 4SS, UK",
      "postCode":"W2 4SS",
      "stationType":"Subway Station",
      "longitude":-0.1871944,
      "latitude":51.5104654
   },
   {
      "name":"Ravenscourt Park",
      "zone":"Zone 2",
      "address":"Ravenscourt Park Station, Ravenscourt Rd, London W6 0UG, UK",
      "postCode":"W6 0UG",
      "stationType":"Subway Station",
      "longitude":-0.2358819,
      "latitude":51.4940701
   },
   {
      "name":"Rayners Lane",
      "zone":"Zone 5",
      "address":"Rayners Lane, Harrow, Pinner HA5 5EG",
      "postCode":"HA5 5EG",
      "stationType":"Subway Station",
      "longitude":-0.370882,
      "latitude":51.575115
   },
   {
      "name":"Rectory Road",
      "zone":"Zone 2",
      "address":"Rectory Road, Evering Rd, London, Stoke Newington N16 7SJ",
      "postCode":"N16 7SJ",
      "stationType":"Train Station",
      "longitude":-0.06824,
      "latitude":51.5585
   },
   {
      "name":"Redbridge",
      "zone":"Zone 4",
      "address":"Redbridge Station, Eastern Ave, Ilford IG4 5DQ, UK",
      "postCode":"IG4 5DQ",
      "stationType":"Subway Station",
      "longitude":0.0453986,
      "latitude":51.5763264
   },
   {
      "name":"Reeves Corner",
      "zone":"Special",
      "address":"Reeves Corner, 5 Cairo New Rd, Croydon CR0 1XP, UK",
      "postCode":"CR0 1XP",
      "stationType":"Light Rail Station",
      "longitude":-0.1062085,
      "latitude":51.3749211
   },
   {
      "name":"Regentâ€™s Park",
      "zone":"Zone 1",
      "address":"Regent's Park Station, Marylebone Rd, Marylebone, London NW1 5HA, UK",
      "postCode":"NW1 5HA",
      "stationType":"Subway Station",
      "longitude":-0.1464767,
      "latitude":51.5233393
   },
   {
      "name":"Richmond",
      "zone":"Zone 4",
      "address":"Richmond, Kew Rd, Richmond TW9 2NA, UK",
      "postCode":"TW9 2NA",
      "stationType":"Subway Station",
      "longitude":-0.301716,
      "latitude":51.463232
   },
   {
      "name":"Rickmansworth",
      "zone":"Zone 7",
      "address":"Rickmansworth WD3 1QY",
      "postCode":"WD3 1QY",
      "stationType":"Subway Station",
      "longitude":-0.4734819,
      "latitude":51.6401709
   },
   {
      "name":"Roding Valley",
      "zone":"Zone 4",
      "address":"Roding Valley Station, Station Way, Buckhurst Hill IG9 6LN, UK",
      "postCode":"IG9 6LN",
      "stationType":"Subway Station",
      "longitude":0.04386,
      "latitude":51.617177
   },
   {
      "name":"Romford",
      "zone":"Zone 6",
      "address":"Romford RM1 1TE",
      "postCode":"RM1 1TE",
      "stationType":"Train Station",
      "longitude":0.18326,
      "latitude":51.57483
   },
   {
      "name":"Rotherhithe",
      "zone":"Zone 2",
      "address":"Rotherhithe, London SE16 4LD",
      "postCode":"SE16 4LD",
      "stationType":"Train Station",
      "longitude":-0.0519381,
      "latitude":51.5008337
   },
   {
      "name":"Royal Albert",
      "zone":"Zone 3",
      "address":"Royal Albert, London E16 2QD",
      "postCode":"E16 2QD",
      "stationType":"Train Station",
      "longitude":0.0460206,
      "latitude":51.5084565
   },
   {
      "name":"Royal Oak",
      "zone":"Zone 2",
      "address":"Royal Oak Station, Lord Hills Bridge, London W2 6ET, UK",
      "postCode":"W2 6ET",
      "stationType":"Subway Station",
      "longitude":-0.1886502,
      "latitude":51.5191317
   },
   {
      "name":"Royal Victoria",
      "zone":"Zone 3",
      "address":"Royal Victoria, London E16 1DE",
      "postCode":"E16 1DE",
      "stationType":"Train Station",
      "longitude":0.0179654,
      "latitude":51.5091692
   },
   {
      "name":"Ruislip",
      "zone":"Zone 6",
      "address":"Ruislip Station, Station Approach, Ruislip HA4 8LD, UK",
      "postCode":"HA4 8LD",
      "stationType":"Subway Station",
      "longitude":-0.421409,
      "latitude":51.571509
   },
   {
      "name":"Ruislip Gardens",
      "zone":"Zone 5",
      "address":"Ruislip Gardens Station, W End Rd, Ruislip HA4 6NF, UK",
      "postCode":"HA4 6NF",
      "stationType":"Subway Station",
      "longitude":-0.4110797,
      "latitude":51.5607075
   },
   {
      "name":"Ruislip Manor",
      "zone":"Zone 6",
      "address":"Ruislip Manor Station, 16 Linden Close, Ruislip HA4 8TN, UK",
      "postCode":"HA4 8TN",
      "stationType":"Subway Station",
      "longitude":-0.4124771,
      "latitude":51.5731935
   },
   {
      "name":"Russell Square",
      "zone":"Zone 1",
      "address":"Russell Square Station, Bernard St, London WC1N 1LJ, UK",
      "postCode":"WC1N 1LJ",
      "stationType":"Subway Station",
      "longitude":-0.1243844,
      "latitude":51.523111
   },
   {
      "name":"St. James Street",
      "zone":"Zone 3",
      "address":"St James Street, Walthamstow, London E17 7PJ",
      "postCode":"E17 7PJ",
      "stationType":"Train Station",
      "longitude":-0.03289,
      "latitude":51.58098
   },
   {
      "name":"St. Jamesâ€™s Park",
      "zone":"Zone 1",
      "address":"St. James's Park, Westminster, London SW1H 0XH",
      "postCode":"SW1H 0XH",
      "stationType":"Subway Station",
      "longitude":-0.1333243,
      "latitude":51.4995794
   },
   {
      "name":"St. Johnâ€™s Wood",
      "zone":"Zone 2",
      "address":"St. John's Wood Station, London NW8 6DP",
      "postCode":"NW8 6DP",
      "stationType":"Subway Station",
      "longitude":-0.1742225,
      "latitude":51.5346807
   },
   {
      "name":"St. Paulâ€™s",
      "zone":"Zone 1",
      "address":"St Paul's Station, 1 Cheapside, London EC1, UK",
      "postCode":"EC1",
      "stationType":"Subway Station",
      "longitude":-0.0975213,
      "latitude":51.5148788
   },
   {
      "name":"Sandilands",
      "zone":"Special",
      "address":"Sandilands, Addiscombe Rd, Croydon CR0, UK",
      "postCode":"CR0 5PN",
      "stationType":"Light Rail Station",
      "longitude":-0.0776837,
      "latitude":51.3749938
   },
   {
      "name":"Seven Kings",
      "zone":"Zone 4",
      "address":"Seven Kings, Ilford IG3 8RE",
      "postCode":"IG3 8RE",
      "stationType":"Train Station",
      "longitude":0.09713,
      "latitude":51.56403
   },
   {
      "name":"Seven Sisters",
      "zone":"Zone 3",
      "address":"Seven Sisters, London N15 5LA",
      "postCode":"N15 5LA",
      "stationType":"Train Station",
      "longitude":-0.07524,
      "latitude":51.58227
   },
   {
      "name":"Shadwell",
      "zone":"Zone 2",
      "address":"Shadwell London Overground Station, Cable St, London E1, UK",
      "postCode":"E1",
      "stationType":"Train Station",
      "longitude":-0.0569483,
      "latitude":51.5113086
   },
   {
      "name":"Shenfield",
      "zone":"Special",
      "address":"Shenfield, Brentwood CM15 8PA",
      "postCode":"CM15 8PA",
      "stationType":"Train Station",
      "longitude":0.329756,
      "latitude":51.6308068
   },
   {
      "name":"Shepherdâ€™s Bush",
      "zone":"Zone 2",
      "address":"Shepherd's Bush Station, White City, London W12 8ND",
      "postCode":"W12 8ND",
      "stationType":"Subway Station",
      "longitude":-0.2186301,
      "latitude":51.5047559
   },
   {
      "name":"Shepherdâ€™s Bush Market",
      "zone":"Zone 2",
      "address":"Shepherd's Bush Market Station, 52 Uxbridge Rd, White City, London W12 7JD, UK",
      "postCode":"W12 7JD",
      "stationType":"Subway Station",
      "longitude":-0.2262407,
      "latitude":51.5058226
   },
   {
      "name":"Shoreditch High Street",
      "zone":"Zone 1",
      "address":"Shoreditch High Street, Braithwaite St, London E1 6GJ, UK",
      "postCode":"E1 6GJ",
      "stationType":"Train Station",
      "longitude":-0.0753743,
      "latitude":51.5232741
   },
   {
      "name":"Silver Street",
      "zone":"Zone 4",
      "address":"Silver Street, London N18 2UE",
      "postCode":"N18 2UE",
      "stationType":"Train Station",
      "longitude":-0.0671012,
      "latitude":51.6147363
   },
   {
      "name":"Sloane Square",
      "zone":"Zone 1",
      "address":"Sloane Square, London SW1W 8EE, UK",
      "postCode":"SW1W 8EE",
      "stationType":"Subway Station",
      "longitude":-0.1562472,
      "latitude":51.4923231
   },
   {
      "name":"Snaresbrook",
      "zone":"Zone 4",
      "address":"Snaresbrook Station, Station Approach, London E11, UK",
      "postCode":"E11 1QE",
      "stationType":"Subway Station",
      "longitude":0.0215193,
      "latitude":51.5809686
   },
   {
      "name":"South Acton",
      "zone":"Zone 3",
      "address":"South Acton, London W3 8TG",
      "postCode":"W3 8TG",
      "stationType":"Train Station",
      "longitude":-0.27013,
      "latitude":51.49969
   },
   {
      "name":"Southbury",
      "zone":"Zone 5",
      "address":"Southbury, Enfield EN3 4HW",
      "postCode":"EN3 4HW",
      "stationType":"Train Station",
      "longitude":-0.05241,
      "latitude":51.6487
   },
   {
      "name":"South Ealing",
      "zone":"Zone 3",
      "address":"South Ealing Station, South Ealing Rd, London W5 4QB, UK",
      "postCode":"W5 4QB",
      "stationType":"Subway Station",
      "longitude":-0.3069393,
      "latitude":51.5013134
   },
   {
      "name":"Southfields",
      "zone":"Zone 3",
      "address":"Southfields Station, Wimbledon Park Rd, London SW18, UK",
      "postCode":"SW18",
      "stationType":"Subway Station",
      "longitude":-0.20655,
      "latitude":51.4452161
   },
   {
      "name":"South Hampstead",
      "zone":"Zone 2",
      "address":"South Hampstead, 156 Loudoun Rd, London NW8 0DJ, UK",
      "postCode":"NW8 0DJ",
      "stationType":"Train Station",
      "longitude":-0.1790611,
      "latitude":51.541301
   },
   {
      "name":"South Harrow",
      "zone":"Zone 5",
      "address":"South Harrow Station, Pentax House, S Hill Ave, Harrow HA2 0DU, UK",
      "postCode":"HA2 0DU",
      "stationType":"Subway Station",
      "longitude":-0.352173,
      "latitude":51.564739
   },
   {
      "name":"Southgate",
      "zone":"Zone 4",
      "address":"Southgate Station, High St, London N14, UK",
      "postCode":"N14",
      "stationType":"Subway Station",
      "longitude":-0.12779,
      "latitude":51.63232
   },
   {
      "name":"South Kensington",
      "zone":"Zone 1",
      "address":"South Kensington Station, Pelham St, Kensington, London SW7 2NB, UK",
      "postCode":"SW7 2NB",
      "stationType":"Subway Station",
      "longitude":-0.175255,
      "latitude":51.4927895
   },
   {
      "name":"South Kenton",
      "zone":"Zone 4",
      "address":"South Kenton, Windermere Ave, Wembley, Preston HA9 8RD, UK",
      "postCode":"HA9 8RD",
      "stationType":"Subway Station",
      "longitude":-0.3084333,
      "latitude":51.5702641
   },
   {
      "name":"South Quay",
      "zone":"Zone 2",
      "address":"South Quay, Isle of Dogs, London E14 9GQ",
      "postCode":"E14 9GQ",
      "stationType":"Train Station",
      "longitude":-0.01625,
      "latitude":51.50008
   },
   {
      "name":"South Ruislip",
      "zone":"Zone 5",
      "address":"South Ruislip, 75 Station Approach, Ruislip HA4 6TP, UK",
      "postCode":"HA4 6TP",
      "stationType":"Subway Station",
      "longitude":-0.398615,
      "latitude":51.556578
   },
   {
      "name":"South Tottenham",
      "zone":"Zone 3",
      "address":"South Tottenham, High Rd, London N15 6UJ, UK",
      "postCode":"N15 6UJ",
      "stationType":"Train Station",
      "longitude":-0.0717267,
      "latitude":51.5803636
   },
   {
      "name":"Southwark",
      "zone":"Zone 1",
      "address":"Southwark Station, 68-70 Blackfriars Rd, London SE1 8JZ, UK",
      "postCode":"SE1 8JZ",
      "stationType":"Subway Station",
      "longitude":-0.1049213,
      "latitude":51.5039243
   },
   {
      "name":"South Wimbledon",
      "zone":"Zone 3/4",
      "address":"South Wimbledon London Underground Station, Merton High St, London SW19 1BD, UK",
      "postCode":"SW19 1BD",
      "stationType":"Subway Station",
      "longitude":-0.1920837,
      "latitude":51.4152881
   },
   {
      "name":"South Woodford",
      "zone":"Zone 4",
      "address":"South Woodford Station, George Ln, London E18 1JJ, UK",
      "postCode":"E18 1JJ",
      "stationType":"Subway Station",
      "longitude":0.0272936,
      "latitude":51.5919773
   },
   {
      "name":"Stamford Brook",
      "zone":"Zone 2",
      "address":"Stamford Brook Station, Goldhawk Rd, Chiswick, London W6, UK",
      "postCode":"W6",
      "stationType":"Subway Station",
      "longitude":-0.2451247,
      "latitude":51.4947782
   },
   {
      "name":"Stamford Hill",
      "zone":"Zone 3",
      "address":"Stamford Hill, London N16 5AG",
      "postCode":"N16 5AG",
      "stationType":"Train Station",
      "longitude":-0.07666,
      "latitude":51.57447
   },
   {
      "name":"Stanmore",
      "zone":"Zone 5",
      "address":"Stanmore London Underground Station, London Rd, Stanmore HA7 4PD, UK",
      "postCode":"HA7 4PD",
      "stationType":"Subway Station",
      "longitude":-0.303075,
      "latitude":51.619675
   },
   {
      "name":"Star Lane",
      "zone":"Zone 2/3",
      "address":"Star Lane, London E16 4RG",
      "postCode":"E16 4RG",
      "stationType":"Light Rail Station",
      "longitude":0.00405,
      "latitude":51.5207809
   },
   {
      "name":"Stepney Green",
      "zone":"Zone 2",
      "address":"Stepney Green, London E1 4DT",
      "postCode":"E1 4DT",
      "stationType":"Subway Station",
      "longitude":-0.0466266,
      "latitude":51.5219776
   },
   {
      "name":"Stockwell",
      "zone":"Zone 2",
      "address":"Stockwell, London SW8 1UG",
      "postCode":"SW8 1UG",
      "stationType":"Subway Station",
      "longitude":-0.122797,
      "latitude":51.4724006
   },
   {
      "name":"Stoke Newington",
      "zone":"Zone 2",
      "address":"Stoke Newington, Cazenove, London N16 6YA",
      "postCode":"N16 6YA",
      "stationType":"Train Station",
      "longitude":-0.07286,
      "latitude":51.56523
   },
   {
      "name":"Stonebridge Park",
      "zone":"Zone 3",
      "address":"Stonebridge Park, Wembley, London NW10 0RW",
      "postCode":"NW10 0RW",
      "stationType":"Subway Station",
      "longitude":-0.2759505,
      "latitude":51.5441032
   },
   {
      "name":"Stratford",
      "zone":"Zone 2/3",
      "address":"Stratford, London E15 1AZ",
      "postCode":"E15 1AZ",
      "stationType":"Train Station",
      "longitude":-0.00337,
      "latitude":51.5419
   },
   {
      "name":"Stratford High Street",
      "zone":"Zone 2/3",
      "address":"Stratford High Street, London E15 1AJ",
      "postCode":"E15 1AJ",
      "stationType":"Light Rail Station",
      "longitude":-0.0011679,
      "latitude":51.5383786
   },
   {
      "name":"Stratford International",
      "zone":"Zone 2/3",
      "address":"Stratford International, London E15 2DU",
      "postCode":"E15 2DU",
      "stationType":"Train Station",
      "longitude":-0.00871,
      "latitude":51.54492
   },
   {
      "name":"Sudbury Hill",
      "zone":"Zone 4",
      "address":"Sudbury Hill, Greenford Rd, Harrow HA1 3RA, UK",
      "postCode":"HA1 3RA",
      "stationType":"Subway Station",
      "longitude":-0.336178,
      "latitude":51.557059
   },
   {
      "name":"Sudbury Town",
      "zone":"Zone 4",
      "address":"Sudbury Town Station, Station Approach, Wembley HA0 2LA, UK",
      "postCode":"HA0 2LA",
      "stationType":"Subway Station",
      "longitude":-0.3155506,
      "latitude":51.5509044
   },
   {
      "name":"Surrey Quays",
      "zone":"Zone 2",
      "address":"Surrey Quays, London SE16 2PP",
      "postCode":"SE16 2PP",
      "stationType":"Train Station",
      "longitude":-0.0478884,
      "latitude":51.4933992
   },
   {
      "name":"Swiss Cottage",
      "zone":"Zone 2",
      "address":"Swiss Cottage Station, Finchley Rd, London NW3 6HY, UK",
      "postCode":"NW3 6HY",
      "stationType":"Subway Station",
      "longitude":-0.1748618,
      "latitude":51.5435323
   },
   {
      "name":"Sydenham",
      "zone":"Zone 3",
      "address":"Sydenham, London SE26 5EU",
      "postCode":"SE26 5EU",
      "stationType":"Train Station",
      "longitude":-0.0543135,
      "latitude":51.4271411
   },
   {
      "name":"Temple",
      "zone":"Zone 1",
      "address":"Temple Station, Victoria Embankment, London WC2R 2PH, UK",
      "postCode":"WC2R 2PH",
      "stationType":"Subway Station",
      "longitude":-0.1139536,
      "latitude":51.5110668
   },
   {
      "name":"Theobalds Grove",
      "zone":"Zone 6",
      "address":"Theobalds Grove, Waltham Cross EN8 8YB",
      "postCode":"EN8 8YB",
      "stationType":"Train Station",
      "longitude":-0.03481,
      "latitude":51.69246
   },
   {
      "name":"Therapia Lane",
      "zone":"Special",
      "address":"Therapia Lane, Dacre Road, Croydon, Greater London CR0 3DD, UK",
      "postCode":"CR0 3DD",
      "stationType":"Light Rail Station",
      "longitude":-0.1291279,
      "latitude":51.3856386
   },
   {
      "name":"Theydon Bois",
      "zone":"Zone 7",
      "address":"Theydon Bois Station, Coppice Row, Theydon Bois, Epping CM16, UK",
      "postCode":"CM16 7EU",
      "stationType":"Subway Station",
      "longitude":0.103112,
      "latitude":51.671769
   },
   {
      "name":"Tooting Bec",
      "zone":"Zone 3",
      "address":"Tooting Bec, London SW17 7AA",
      "postCode":"SW17 7AA",
      "stationType":"Subway Station",
      "longitude":-0.1596609,
      "latitude":51.4358272
   },
   {
      "name":"Tooting Broadway",
      "zone":"Zone 3",
      "address":"Tooting Broadway Station, Tooting High St, London SW17 0SU, UK",
      "postCode":"SW17 0SU",
      "stationType":"Subway Station",
      "longitude":-0.1680062,
      "latitude":51.4276472
   },
   {
      "name":"Tottenham Court Road",
      "zone":"Zone 1",
      "address":"Tottenham Court Road Station, Oxford St, Soho, London W1, UK",
      "postCode":"W1",
      "stationType":"Subway Station",
      "longitude":-0.1306618,
      "latitude":51.5162628
   },
   {
      "name":"Tottenham Hale",
      "zone":"Zone 3",
      "address":"Tottenham Hale Station, London N15",
      "postCode":"N15",
      "stationType":"Subway Station",
      "longitude":-0.060254,
      "latitude":51.5879205
   },
   {
      "name":"Totteridge & Whetstone",
      "zone":"Zone 4",
      "address":"Totteridge & Whetstone Station, Totteridge Ln, Whetstone, London N20 0HD, UK",
      "postCode":"N20 0HD",
      "stationType":"Subway Station",
      "longitude":-0.1791552,
      "latitude":51.6302506
   },
   {
      "name":"Tower Gateway",
      "zone":"Zone 1",
      "address":"Tower Gateway, Goodman's Yard, London EC3N 4SG, UK",
      "postCode":"EC3N 4SG",
      "stationType":"Light Rail Station",
      "longitude":-0.0738914,
      "latitude":51.5106284
   },
   {
      "name":"Tower Hill",
      "zone":"Zone 1",
      "address":"Tower Hill, London EC3N 4DR",
      "postCode":"EC3N 4DR",
      "stationType":"Subway Station",
      "longitude":-0.0765083,
      "latitude":51.5100491
   },
   {
      "name":"Tufnell Park",
      "zone":"Zone 2",
      "address":"Tufnell Park, London N19 5BQ",
      "postCode":"N19 5BQ",
      "stationType":"Subway Station",
      "longitude":-0.1380358,
      "latitude":51.5567297
   },
   {
      "name":"Turkey Street",
      "zone":"Zone 6",
      "address":"Turkey Street, Enfield EN3 6PF",
      "postCode":"EN3 6PF",
      "stationType":"Train Station",
      "longitude":-0.0471327,
      "latitude":51.6724995
   },
   {
      "name":"Turnham Green",
      "zone":"Zone 2/3",
      "address":"Turnham Green Station, Turnham Green Terrace, Chiswick, London W4 1QN, UK",
      "postCode":"W4 1QN",
      "stationType":"Subway Station",
      "longitude":-0.2550418,
      "latitude":51.4952998
   },
   {
      "name":"Turnpike Lane",
      "zone":"Zone 3",
      "address":"Turnpike Lane Station, Westbury Ave, Wood Green, London N15 3NX, UK",
      "postCode":"N15 3NX",
      "stationType":"Subway Station",
      "longitude":-0.1027587,
      "latitude":51.5904278
   },
   {
      "name":"Upminster",
      "zone":"Zone 6",
      "address":"Upminster, Station Rd, Upminster RM14 2TD, UK",
      "postCode":"RM14 2TD",
      "stationType":"Subway Station",
      "longitude":0.2506758,
      "latitude":51.5590244
   },
   {
      "name":"Upminster Bridge",
      "zone":"Zone 6",
      "address":"Upminster Bridge Station, Upminster Rd, Hornchurch RM12 6PL, UK",
      "postCode":"RM12 6PL",
      "stationType":"Subway Station",
      "longitude":0.235789,
      "latitude":51.5588837
   },
   {
      "name":"Upney",
      "zone":"Zone 4",
      "address":"Upney Station, Upney Ln, Barking IG11 9LS, UK",
      "postCode":"IG11 9LS",
      "stationType":"Subway Station",
      "longitude":0.1015639,
      "latitude":51.5384211
   },
   {
      "name":"Upper Holloway",
      "zone":"Zone 2",
      "address":"Upper Holloway, London N19 3JD",
      "postCode":"N19 3JD",
      "stationType":"Train Station",
      "longitude":-0.12949,
      "latitude":51.56363
   },
   {
      "name":"Upton Park",
      "zone":"Zone 3",
      "address":"Upton Park Station, Green St, London E13 9AP, UK",
      "postCode":"E13 9AP",
      "stationType":"Subway Station",
      "longitude":0.0353034,
      "latitude":51.5353424
   },
   {
      "name":"Uxbridge",
      "zone":"Zone 6",
      "address":"Uxbridge Station, High St, Uxbridge UB8 1JZ, UK",
      "postCode":"UB8 1JZ",
      "stationType":"Train Station",
      "longitude":-0.4780527,
      "latitude":51.5464419
   },
   {
      "name":"Vauxhall",
      "zone":"Zone 1/2",
      "address":"Vauxhall Station, Vauxhall Cross, London SE1, UK",
      "postCode":"SE1",
      "stationType":"Subway Station",
      "longitude":-0.1236408,
      "latitude":51.4859673
   },
   {
      "name":"Victoria",
      "zone":"Zone 1",
      "address":"Victoria Station, Victoria St, London SW1E 5ND, UK",
      "postCode":"SW1E 5ND",
      "stationType":"Train Station",
      "longitude":-0.1438979,
      "latitude":51.4952103
   },
   {
      "name":"Waddon Marsh",
      "zone":"Special",
      "address":"Waddon Marsh Tramlink Stop, Croydon CR0 4XE",
      "postCode":"CR0 4XE",
      "stationType":"Light Rail Station",
      "longitude":-0.11799,
      "latitude":51.37708
   },
   {
      "name":"Walthamstow Central",
      "zone":"Zone 3",
      "address":"Walthamstow Central, Walthamstow Central Station BR Hoe St, Walthamstow, London E17 7LP, UK",
      "postCode":"E17 7LP",
      "stationType":"Train Station",
      "longitude":-0.019886,
      "latitude":51.5830128
   },
   {
      "name":"Walthamstow Queenâ€™s Road",
      "zone":"Zone 3",
      "address":"Walthamstow Queens Road, Walthamstow, London E17 7QZ",
      "postCode":"E17 7QZ",
      "stationType":"Train Station",
      "longitude":-0.02382,
      "latitude":51.5815
   },
   {
      "name":"Wandle Park",
      "zone":"Special",
      "address":"Wandle Park, Vicarage Road, Greater London CR0 4JS, United Kingdom",
      "postCode":"CR0 4JS",
      "stationType":"Light Rail Station",
      "longitude":-0.1133771,
      "latitude":51.3734186
   },
   {
      "name":"Wandsworth Road",
      "zone":"Zone 2",
      "address":"Wandsworth Road, Brayburne Ave, London SW4 6AD, UK",
      "postCode":"SW4 6AD",
      "stationType":"Train Station",
      "longitude":-0.138454,
      "latitude":51.4698761
   },
   {
      "name":"Wanstead",
      "zone":"Zone 4",
      "address":"Wanstead Station, George Green Tunnel, London E11, UK",
      "postCode":"E11 2JL",
      "stationType":"Subway Station",
      "longitude":0.0287859,
      "latitude":51.5756256
   },
   {
      "name":"Wanstead Park",
      "zone":"Zone 3",
      "address":"Wanstead Park London Overground Station, Station Approach, Woodgrange Rd, London E7 0HX, UK",
      "postCode":"E7 0HX",
      "stationType":"Train Station",
      "longitude":0.026256,
      "latitude":51.551746
   },
   {
      "name":"Wapping",
      "zone":"Zone 2",
      "address":"Wapping, St Katharine's & Wapping, London E1W 3PA",
      "postCode":"E1W 3PA",
      "stationType":"Train Station",
      "longitude":-0.0557457,
      "latitude":51.5043995
   },
   {
      "name":"Warren Street",
      "zone":"Zone 1",
      "address":"Warren Street Station, Kings Cross, London NW1 3AA",
      "postCode":"NW1 3AA",
      "stationType":"Subway Station",
      "longitude":-0.1381797,
      "latitude":51.5246164
   },
   {
      "name":"Warwick Avenue",
      "zone":"Zone 2",
      "address":"Warwick Avenue Station, Warwick Ave, London W9 2PT, UK",
      "postCode":"W9 2PT",
      "stationType":"Subway Station",
      "longitude":-0.1837948,
      "latitude":51.5232693
   },
   {
      "name":"Waterloo",
      "zone":"Zone 1",
      "address":"Waterloo Station, Waterloo Rd, Lambeth, London SE1 8SW, UK",
      "postCode":"SE1 8SW",
      "stationType":"Train Station",
      "longitude":-0.1123051,
      "latitude":51.5031653
   },
   {
      "name":"Watford",
      "zone":"Zone 7",
      "address":"Watford Station, Watford WD18 7LE",
      "postCode":"WD18 7LE",
      "stationType":"Subway Station",
      "longitude":-0.41735,
      "latitude":51.65745
   },
   {
      "name":"Watford High Street",
      "zone":"Zone 8",
      "address":"",
      "postCode":"",
      "stationType":null,
      "longitude":null,
      "latitude":null
   },
   {
      "name":"Watford Junction",
      "zone":"Special",
      "address":"Watford Junction, Greater London 1EU, Station Rd, Watford WD17, United Kingdom",
      "postCode":"WD17 1EU",
      "stationType":"Train Station",
      "longitude":-0.3964488,
      "latitude":51.6637128
   },
   {
      "name":"Wellesley Road",
      "zone":"Special",
      "address":"Watford High Street, Watford WD17 2NW",
      "postCode":"WD17 2NW",
      "stationType":"Train Station",
      "longitude":-0.39169,
      "latitude":51.65266
   },
   {
      "name":"Wembley Park",
      "zone":"Zone 4",
      "address":"Wembley Park Station, Bridge Road, Wembley HA9 9AA, UK",
      "postCode":"HA9 9AA",
      "stationType":"Subway Station",
      "longitude":-0.2793789,
      "latitude":51.563311
   },
   {
      "name":"West Acton",
      "zone":"Zone 3",
      "address":"West Acton Station, Station Parade, 1 Noel Rd, Acton, London W3 0DS, UK",
      "postCode":"W3 0DS",
      "stationType":"Subway Station",
      "longitude":-0.2809457,
      "latitude":51.5179866
   },
   {
      "name":"Wembley Central",
      "zone":"Zone 4",
      "address":"Wembley Central, Wembley HA9",
      "postCode":"HA9",
      "stationType":"Train Station",
      "longitude":-0.29571,
      "latitude":51.5516146
   },
   {
      "name":"Westbourne Park",
      "zone":"Zone 2",
      "address":"Westbourne Park Station, Western Road, London W11 1AB, UK",
      "postCode":"W11 1AB",
      "stationType":"Subway Station",
      "longitude":-0.2007707,
      "latitude":51.5209332
   },
   {
      "name":"West Brompton",
      "zone":"Zone 2",
      "address":"West Brompton, Kensington, London SW5 9JX",
      "postCode":"SW5 9JX",
      "stationType":"Subway Station",
      "longitude":-0.1954765,
      "latitude":51.487281
   },
   {
      "name":"West Croydon",
      "zone":"Zone 5",
      "address":"West Croydon, London Rd, Croydon CR0 2TA, UK",
      "postCode":"CR0 2TA",
      "stationType":"Train Station",
      "longitude":-0.1027712,
      "latitude":51.3783877
   },
   {
      "name":"Westferry",
      "zone":"Zone 2",
      "address":"Westferry, Poplar, London E14 8AB",
      "postCode":"E14 8AB",
      "stationType":"Train Station",
      "longitude":-0.02672,
      "latitude":51.50943
   },
   {
      "name":"West Finchley",
      "zone":"Zone 4",
      "address":"West Finchley Station, Nether St, London, Barnet N3 1NT, UK",
      "postCode":"N3 1NT",
      "stationType":"Subway Station",
      "longitude":-0.1884552,
      "latitude":51.6095705
   },
   {
      "name":"West Ham",
      "zone":"Zone 2/3",
      "address":"West Ham Station, London E15 3BN",
      "postCode":"E15 3BN",
      "stationType":"Subway Station",
      "longitude":0.00508,
      "latitude":51.52814
   },
   {
      "name":"West Hampstead",
      "zone":"Zone 2",
      "address":"West Hampstead, West End Ln, London NW6 2LJ, UK",
      "postCode":"NW6 2LJ",
      "stationType":"Train Station",
      "longitude":-0.191221,
      "latitude":51.5474871
   },
   {
      "name":"West Harrow",
      "zone":"Zone 5",
      "address":"West Harrow Station, Vaughan Rd, Harrow HA1, UK",
      "postCode":"HA1 4HE",
      "stationType":"Subway Station",
      "longitude":-0.352882,
      "latitude":51.579838
   },
   {
      "name":"West India Quay",
      "zone":"Zone 2",
      "address":"West India Quay, Canary Wharf, London E14 5EL",
      "postCode":"E14 5EL",
      "stationType":"Light Rail Station",
      "longitude":-0.0202673,
      "latitude":51.5068581
   },
   {
      "name":"Westminster",
      "zone":"Zone 1",
      "address":"Westminster Station, Bridge St, London SW1A 2LW, UK",
      "postCode":"SW1A 2LW",
      "stationType":"Subway Station",
      "longitude":-0.1248313,
      "latitude":51.5011487
   },
   {
      "name":"West Ruislip",
      "zone":"Zone 6",
      "address":"West Ruislip, Ickenham, Ruislip HA4 7DP",
      "postCode":"HA4 7DP",
      "stationType":"Subway Station",
      "longitude":-0.43786,
      "latitude":51.56969
   },
   {
      "name":"West Kensington",
      "zone":"Zone 2",
      "address":"West Kensington, North End Rd, London W14 9NL, UK",
      "postCode":"W14 9NL",
      "stationType":"Subway Station",
      "longitude":-0.20645,
      "latitude":51.490563
   },
   {
      "name":"West Silvertown",
      "zone":"Zone 3",
      "address":"West Silvertown, London E16 1TX",
      "postCode":"E16 1TX",
      "stationType":"Train Station",
      "longitude":0.0224044,
      "latitude":51.5029226
   },
   {
      "name":"White City",
      "zone":"Zone 2",
      "address":"White City Station, Wood Ln, White City, London W12 7RH, UK",
      "postCode":"W12 7RH",
      "stationType":"Subway Station",
      "longitude":-0.2244647,
      "latitude":51.5119385
   },
   {
      "name":"Whitechapel",
      "zone":"Zone 2",
      "address":"Whitechapel Station, 277 Whitechapel Rd, London E1 1BY, UK",
      "postCode":"E1 1BY",
      "stationType":"Train Station",
      "longitude":-0.061159,
      "latitude":51.5195077
   },
   {
      "name":"White Hart Lane",
      "zone":"Zone 3",
      "address":"White Hart Ln, London N17 8HH, UK",
      "postCode":"N17 8HH",
      "stationType":"Train Station",
      "longitude":-0.0714707,
      "latitude":51.6051795
   },
   {
      "name":"Willesden Green",
      "zone":"Zone 2/3",
      "address":"Willesden Green Station, Walm Ln, London NW2 4QS, UK",
      "postCode":"NW2 4QS",
      "stationType":"Subway Station",
      "longitude":-0.2212004,
      "latitude":51.549183
   },
   {
      "name":"Willesden Junction",
      "zone":"Zone 2/3",
      "address":"Willesden Junction, Station Approach, London, Harlesden NW10 4UY, UK",
      "postCode":"NW10 4UY",
      "stationType":"Train Station",
      "longitude":-0.2449151,
      "latitude":51.5322214
   },
   {
      "name":"Wimbledon",
      "zone":"Zone 3",
      "address":"Wimbledon, The Broadway, Wimbledon, London SW19 7NL, UK",
      "postCode":"SW19 7NL",
      "stationType":"Subway Station",
      "longitude":-0.206595,
      "latitude":51.4213717
   },
   {
      "name":"Wimbledon Park",
      "zone":"Zone 3",
      "address":"Wimbledon Park Station, Arthur Rd, Wimbledon, London SW19 8AD, UK",
      "postCode":"SW19 8AD",
      "stationType":"Subway Station",
      "longitude":-0.1995257,
      "latitude":51.4345344
   },
   {
      "name":"Woodford",
      "zone":"Zone 4",
      "address":"Woodford Station, Snakes Lane, Woodford Green IG8 7QE, UK",
      "postCode":"IG8 7QE",
      "stationType":"Subway Station",
      "longitude":0.0340548,
      "latitude":51.6071983
   },
   {
      "name":"Woodgrange Park",
      "zone":"Zone 3/4",
      "address":"Woodgrange Park, London E7 8AY",
      "postCode":"E7 8AY",
      "stationType":"Train Station",
      "longitude":0.0444615,
      "latitude":51.5491793
   },
   {
      "name":"Wood Green",
      "zone":"Zone 3",
      "address":"Wood Green Station, Wood Green, London N22 5JU",
      "postCode":"N22 5JU",
      "stationType":"Subway Station",
      "longitude":-0.1098199,
      "latitude":51.597431
   },
   {
      "name":"Wood Lane",
      "zone":"Zone 2",
      "address":"Wood Lane Station, White City, London W12 7SL",
      "postCode":"W12 7SL",
      "stationType":"Subway Station",
      "longitude":-0.2243011,
      "latitude":51.5100237
   },
   {
      "name":"Woodside",
      "zone":"Special",
      "address":"Woodside Tram (Stop WL), London SE25 4S",
      "postCode":"SE25 4SP",
      "stationType":"Bus Station",
      "longitude":-0.064853,
      "latitude":51.388321
   },
   {
      "name":"Woodside Park",
      "zone":"Zone 4",
      "address":"Woodside Park Station, Woodside Park Rd, London N12 8RT, UK",
      "postCode":"N12 8RT",
      "stationType":"Subway Station",
      "longitude":-0.185339,
      "latitude":51.6180026
   },
   {
      "name":"Wood Street",
      "zone":"Zone 4",
      "address":"Wood Street, Walthamstow, London E17 3NZ",
      "postCode":"E17 3NZ",
      "stationType":"Train Station",
      "longitude":-0.00238,
      "latitude":51.58658
   },
   {
      "name":"Woolwich Arsenal",
      "zone":"Zone 4",
      "address":"Woolwich Arsenal, Woolwich, London SE18 6EU",
      "postCode":"SE18 6EU",
      "stationType":"Train Station",
      "longitude":0.0689901,
      "latitude":51.4900158
   }
]